,latitude,longitude,altitude(m),ultrasonicHeight(m),speed(mps),distance(m),max_altitude(m),max_ascent(m),max_speed(mps),max_distance(m),time(millisecond),datetime(utc),datetime(local),satellites,pressure(Pa),temperature(F),voltage(v),home_latitude,home_longitude,velocityX(mps),velocityY(mps),velocityZ(mps),pitch(deg),roll(deg),yaw(deg),powerlevel,isflying,istakingphoto,remainPowerPercent,remainLifePercent,currentCurrent,currentElectricity,currentVoltage,batteryTemperature,dischargeCount,flightmode,isMotorsOn,isTakingVideo,Rc_elevator,Rc_aileron,Rc_throttle,Rc_rudder,Rc_gyro,timestamp,Battery_Cell1,Battery_Cell2,Battery_Cell3,Battery_Cell4,Battery_Cell5,Battery_Cell6,Dronetype,AppVersion,Planename,FlyControllerSerialNumber,RemoteSerialNumber,BatterySerialNumber,CENTER_BATTERY.productDate,CENTER_BATTERY.serialNo,CENTER_BATTERY.fullCapacity,CENTER_BATTERY.productDateRaw,pitchRaw,rollRaw,yawRaw,gimbalPitchRaw,gimbalRollRaw,gimbalYawRaw,flyState,altitudeRaw,speedRaw,distanceRaw,velocityXRaw,velocityYRaw,velocityZRaw,data_reuse,App_Tip,App_Warning,downlinkSignalQuality,uplinkSignalQuality,transmissionChannel,rcModeSwitch,rcHome,rcPause,rcTransform,rcJoystickMode,appMode,FlyControllerSerialNumber_legacy,RemoteSerialNumber_legacy,BatterySerialNumber_legacy,Battery2SerialNumber,frontAvoidDist,backAvoidDist,isBrakingToAvoid
0,51.519506,5.857978,0.9,0.0,2.3,0.04,0.9,0.9,2.3,0.04,0,2020-09-29 12:10:56,2020-09-29 14:10:56.648,16,0,0,12.711,51.519506,5.857977,-0.1,0.0,-2.3,-3.0,-0.4,-21.9,0,1,0,98,100,-1720,3670,12711,2941.5,8,GPS,1,0,0,0,660,0,0,1601381456647,4254,4255,4253,0,0,0,13,Litchi_iOS_2.8.0,aladrian-MAVIC PRO,08RDEAJP01043R,08XUEB30061XN3,093AEB303309JT,,0,3724,0,30.0,-4.0,-219.0,0.0,0.0,-215.0,6,9.0,23.02,0.43,-1.0,0.0,-23.0,0,,,100,100,0,1,0,0,0,0,0,(null),(null),(null),(null),0.0,0.0,0
1,51.519506,5.857978,1.2,1.2,2.7,0.05,1.2,1.2,2.7,0.05,80,2020-09-29 12:10:56,2020-09-29 14:10:56.727,16,0,0,12.711,51.519506,5.857977,0.0,0.0,-2.7,-2.8,-0.9,-22.0,0,1,0,98,100,-1720,3670,12711,2941.5,8,GPS,1,0,0,0,660,0,0,1601381456727,4254,4255,4253,0,0,0,13,,,,,,,0,0,0,28.0,-9.0,-220.0,0.0,0.0,-215.0,6,12.0,27.0,0.53,0.0,0.0,-27.0,0,,,100,100,0,1,0,0,0,0,0,,,,,0.0,0.0,0
2,51.519506,5.857978,1.5,1.5,3.1,0.06,1.5,1.5,3.1,0.06,176,2020-09-29 12:10:56,2020-09-29 14:10:56.824,16,0,0,12.711,51.519506,5.857977,0.0,0.0,-3.1,-3.0,-1.1,-22.0,0,1,0,98,100,-1720,3670,12711,2941.5,8,GPS,1,0,0,0,660,0,0,1601381456823,4254,4255,4253,0,0,0,13,,,,,,,0,0,0,30.0,-11.0,-220.0,0.0,0.0,-215.0,6,15.0,31.0,0.58,0.0,0.0,-31.0,0,,,100,100,0,1,0,0,0,0,0,,,,,0.0,0.0,0
3,51.519506,5.857978,1.8,1.9,3.5,0.06,1.8,1.8,3.5,0.06,280,2020-09-29 12:10:56,2020-09-29 14:10:56.928,16,0,0,12.711,51.519506,5.857977,0.0,0.0,-3.5,-2.9,-0.9,-22.0,0,1,0,98,100,-1720,3670,12711,2941.5,8,GPS,1,0,0,0,660,-39,0,1601381456927,4254,4255,4253,0,0,0,13,,,,,,,0,0,0,29.0,-9.0,-220.0,0.0,0.0,-215.0,6,18.0,35.0,0.61,0.0,0.0,-35.0,0,,,100,100,0,1,0,0,0,0,0,,,,,0.0,0.0,0
4,51.519506,5.857978,2.2,2.2,3.7,0.07,2.2,2.2,3.7,0.07,380,2020-09-29 12:10:57,2020-09-29 14:10:57.028,16,0,0,12.711,51.519506,5.857977,0.0,0.0,-3.7,-2.9,-0.5,-22.0,0,1,0,98,100,-1720,3670,12711,2941.5,8,GPS,1,0,0,0,0,0,0,1601381457027,4254,4255,4253,0,0,0,13,,,,,,,0,0,0,29.0,-5.0,-220.0,0.0,0.0,-215.0,6,22.0,37.0,0.69,0.0,0.0,-37.0,0,,,100,100,0,1,0,0,0,0,0,,,,,0.0,0.0,0
5,51.519506,5.857979,2.6,2.6,3.8,0.08,2.6,2.6,3.8,0.08,479,2020-09-29 12:10:57,2020-09-29 14:10:57.126,16,0,0,12.711,51.519506,5.857977,0.0,0.0,-3.8,-3.1,-0.4,-21.8,0,1,0,98,100,-1720,3670,12711,2941.5,8,GPS,1,0,0,0,0,0,0,1601381457126,4254,4255,4253,0,0,0,13,,,,,,,0,0,0,31.0,-4.0,-218.0,0.0,0.0,-215.0,6,26.0,38.0,0.76,0.0,0.0,-38.0,0,,,100,100,0,1,0,0,0,0,0,,,,,0.0,0.0,0
6,51.519506,5.857979,2.9,3.0,3.7,0.08,2.9,2.9,3.8,0.08,577,2020-09-29 12:10:57,2020-09-29 14:10:57.225,16,0,0,12.711,51.519506,5.857977,0.0,0.0,-3.7,-3.2,-0.4,-21.7,0,1,0,98,100,-1720,3670,12711,2941.5,8,GPS,1,0,0,0,0,0,0,1601381457224,4254,4255,4253,0,0,0,13,,,,,,,0,0,0,32.0,-4.0,-217.0,0.0,0.0,-215.0,6,29.0,37.0,0.84,0.0,0.0,-37.0,0,,,100,100,0,1,0,0,0,0,0,,,,,0.0,0.0,0
7,51.519506,5.857979,3.3,3.4,3.6,0.09,3.3,3.3,3.8,0.09,686,2020-09-29 12:10:57,2020-09-29 14:10:57.333,16,0,0,12.141,51.519506,5.857977,0.0,0.0,-3.6,-3.1,-0.5,-21.6,0,1,0,98,100,-6670,3668,12141,2941.5,8,GPS,1,0,0,0,0,0,0,1601381457333,4254,4255,4253,0,0,0,13,,,,,,,0,0,0,31.0,-5.0,-216.0,0.0,0.0,-215.0,6,33.0,36.0,0.9,0.0,0.0,-36.0,0,,,100,100,0,1,0,0,0,0,0,,,,,0.0,0.0,0
8,51.519506,5.857979,3.7,3.7,3.3,0.1,3.7,3.7,3.8,0.1,788,2020-09-29 12:10:57,2020-09-29 14:10:57.435,16,0,0,12.141,51.519506,5.857977,0.0,0.0,-3.3,-3.0,-0.6,-21.6,0,1,0,98,100,-6670,3668,12141,2941.5,8,GPS,1,0,0,0,0,0,0,1601381457435,4254,4255,4253,0,0,0,13,,,,,,,0,0,0,30.0,-6.0,-216.0,0.0,0.0,-215.0,6,37.0,33.0,1.05,0.0,0.0,-33.0,0,,,100,100,0,1,0,0,0,0,0,,,,,0.0,0.0,0
9,51.519506,5.857979,4.0,4.1,3.0,0.12,4.0,4.0,3.8,0.12,880,2020-09-29 12:10:57,2020-09-29 14:10:57.527,16,0,0,12.141,51.519506,5.857977,0.0,0.0,-3.0,-2.8,-0.6,-21.5,0,1,0,98,100,-6670,3668,12141,2941.5,8,GPS,1,0,0,0,0,0,0,1601381457527,4254,4255,4253,0,0,0,13,,,,,,,0,0,0,28.0,-6.0,-215.0,0.0,0.0,-215.0,6,40.0,30.0,1.17,0.0,0.0,-30.0,0,,,100,100,0,1,0,0,0,0,0,,,,,0.0,0.0,0
10,51.519506,5.857979,4.3,4.4,2.7,0.13,4.3,4.3,3.8,0.13,997,2020-09-29 12:10:57,2020-09-29 14:10:57.644,16,0,0,12.141,51.519506,5.857977,0.0,0.0,-2.7,-2.5,-0.9,-21.4,0,1,0,98,100,-6670,3668,12141,2941.5,8,GPS,1,0,0,0,0,0,0,1601381457644,4254,4255,4253,0,0,0,13,,,,,,,0,0,0,25.0,-9.0,-214.0,0.0,0.0,-215.0,6,43.0,27.0,1.3,0.0,0.0,-27.0,0,,,100,100,0,1,0,0,0,0,0,,,,,0.0,0.0,0
11,51.519506,5.857979,4.5,4.6,2.3,0.14,4.5,4.5,3.8,0.14,1081,2020-09-29 12:10:57,2020-09-29 14:10:57.729,16,0,0,12.141,51.519506,5.857977,0.0,0.0,-2.3,-2.2,-1.0,-21.4,0,1,0,98,100,-6670,3668,12141,2941.5,8,GPS,1,0,0,0,0,0,0,1601381457728,4254,4255,4253,0,0,0,13,,,,,,,0,0,0,22.0,-10.0,-214.0,0.0,0.0,-215.0,6,45.0,23.0,1.4,0.0,0.0,-23.0,0,,,100,100,0,1,0,0,0,0,0,,,,,0.0,0.0,0
12,51.519506,5.85798,4.7,4.9,1.8,0.15,4.7,4.7,3.8,0.15,1187,2020-09-29 12:10:57,2020-09-29 14:10:57.835,16,0,0,12.141,51.519506,5.857977,0.0,0.0,-1.8,-2.0,-1.4,-21.4,0,1,0,98,100,-6670,3668,12141,2941.5,8,GPS,1,0,0,0,0,0,0,1601381457834,4254,4255,4253,0,0,0,13,,,,,,,0,0,0,20.0,-14.0,-214.0,0.0,0.0,-215.0,6,47.0,18.0,1.48,0.0,0.0,-18.0,0,,,100,100,0,1,0,0,0,0,0,,,,,0.0,0.0,0
13,51.519506,5.85798,4.9,5.1,1.4,0.16,4.9,4.9,3.8,0.16,1277,2020-09-29 12:10:57,2020-09-29 14:10:57.924,16,0,0,12.141,51.519506,5.857977,0.0,0.0,-1.4,-2.0,-1.6,-21.4,0,1,0,98,100,-6670,3668,12141,2941.5,8,GPS,1,0,0,0,0,0,0,1601381457924,4254,4255,4253,0,0,0,13,,,,,,,0,0,0,20.0,-16.0,-214.0,0.0,0.0,-215.0,6,49.0,14.0,1.55,0.0,0.0,-14.0,0,,,100,100,0,1,0,0,0,0,0,,,,,0.0,0.0,0
14,51.519506,5.85798,5.0,5.2,1.0,0.16,5.0,5.0,3.8,0.16,1381,2020-09-29 12:10:58,2020-09-29 14:10:58.028,16,0,0,12.141,51.519506,5.857977,0.0,0.0,-1.0,-1.8,-1.7,-21.4,0,1,0,98,100,-6670,3668,12141,2941.5,8,GPS,1,0,0,0,0,0,0,1601381458028,4254,4255,4253,0,0,0,13,,,,,,,0,0,0,18.0,-17.0,-214.0,0.0,0.0,-215.0,6,50.0,10.0,1.6,0.0,0.0,-10.0,0,,,100,100,0,1,0,0,0,0,0,,,,,0.0,0.0,0
15,51.519506,5.85798,5.1,5.4,0.6,0.16,5.1,5.1,3.8,0.16,1480,2020-09-29 12:10:58,2020-09-29 14:10:58.128,16,0,0,12.141,51.519506,5.857977,0.0,0.0,-0.6,-1.6,-1.8,-21.5,0,1,0,98,100,-6670,3668,12141,2941.5,8,GPS,1,0,0,0,0,0,0,1601381458127,4254,4255,4253,0,0,0,13,,,,,,,0,0,0,16.0,-18.0,-215.0,0.0,0.0,-215.0,6,51.0,6.0,1.65,0.0,0.0,-6.0,0,,,100,100,0,1,0,0,0,0,0,,,,,0.0,0.0,0
16,51.519506,5.85798,5.1,5.4,0.3,0.17,5.1,5.1,3.8,0.17,1581,2020-09-29 12:10:58,2020-09-29 14:10:58.229,16,0,0,12.141,51.519506,5.857977,0.0,0.0,-0.3,-1.4,-1.7,-21.5,0,1,0,98,100,-6670,3668,12141,2941.5,8,GPS,1,0,0,0,0,0,0,1601381458228,4254,4255,4253,0,0,0,13,,,,,,,0,0,0,14.0,-17.0,-215.0,0.0,0.0,-215.0,6,51.0,3.0,1.7,0.0,0.0,-3.0,0,,,100,100,0,1,0,0,0,0,0,,,,,0.0,0.0,0
17,51.519506,5.85798,5.1,5.5,0.1,0.17,5.1,5.1,3.8,0.17,1679,2020-09-29 12:10:58,2020-09-29 14:10:58.327,16,0,0,12.141,51.519506,5.857977,0.0,0.0,-0.1,-1.3,-1.5,-21.6,0,1,0,98,100,-6670,3668,12141,2941.5,8,GPS,1,0,0,0,0,0,0,1601381458326,4254,4255,4253,0,0,0,13,,,,,,,0,0,0,13.0,-15.0,-216.0,0.0,0.0,-215.0,6,51.0,1.0,1.75,0.0,0.0,-1.0,0,,,100,100,0,1,0,0,0,0,0,,,,,0.0,0.0,0
18,51.519506,5.85798,5.1,5.5,0.0,0.17,5.1,5.1,3.8,0.17,1797,2020-09-29 12:10:58,2020-09-29 14:10:58.444,16,0,0,12.141,51.519506,5.857977,0.0,0.0,0.0,-1.2,-1.4,-21.6,0,1,0,98,100,-6670,3668,12141,2941.5,8,GPS,1,0,0,0,0,0,0,1601381458444,4254,4255,4253,0,0,0,13,,,,,,,0,0,0,12.0,-14.0,-216.0,0.0,0.0,-215.0,6,51.0,0.0,1.72,0.0,0.0,0.0,0,,,100,100,0,1,0,0,0,0,0,,,,,0.0,0.0,0
19,51.519506,5.85798,5.1,5.6,0.1,0.17,5.1,5.1,3.8,0.17,1880,2020-09-29 12:10:58,2020-09-29 14:10:58.527,16,0,0,12.141,51.519506,5.857977,0.0,0.0,0.1,-1.4,-1.3,-21.6,0,1,0,98,100,-6670,3668,12141,2941.5,8,GPS,1,0,0,0,0,0,0,1601381458527,4254,4255,4253,0,0,0,13,,,,,,,0,0,0,14.0,-13.0,-216.0,0.0,0.0,-215.0,6,51.0,1.0,1.7,0.0,0.0,1.0,0,,,100,100,0,1,0,0,0,0,0,,,,,0.0,0.0,0
20,51.519506,5.85798,5.1,5.6,0.1,0.17,5.1,5.1,3.8,0.17,2016,2020-09-29 12:10:58,2020-09-29 14:10:58.663,16,0,0,12.141,51.519506,5.857977,0.0,0.0,0.1,-1.6,-1.2,-21.6,0,1,0,98,100,-6670,3668,12141,2941.5,8,GPS,1,0,0,0,0,0,0,1601381458663,4254,4255,4253,0,0,0,13,,,,,,,0,0,0,16.0,-12.0,-216.0,0.0,0.0,-215.0,6,51.0,1.0,1.72,0.0,0.0,1.0,0,,,100,100,0,1,0,0,0,0,0,,,,,0.0,0.0,0
21,51.519506,5.85798,5.1,5.6,0.0,0.18,5.1,5.1,3.8,0.18,2079,2020-09-29 12:10:58,2020-09-29 14:10:58.727,16,0,0,12.141,51.519506,5.857977,0.0,0.0,0.0,-1.7,-1.2,-21.6,0,1,0,98,100,-6670,3668,12141,2941.5,8,GPS,1,0,0,0,0,0,0,1601381458726,4254,4255,4253,0,0,0,13,,,,,,,0,0,0,17.0,-12.0,-216.0,0.0,0.0,-215.0,6,51.0,0.0,1.75,0.0,0.0,0.0,0,,,100,100,0,1,0,0,0,0,0,,,,,0.0,0.0,0
22,51.519506,5.85798,5.1,5.6,0.0,0.18,5.1,5.1,3.8,0.18,2165,2020-09-29 12:10:58,2020-09-29 14:10:58.813,16,0,0,12.141,51.519506,5.857977,0.0,0.0,0.0,-1.7,-1.1,-21.6,0,1,0,98,100,-6670,3668,12141,2941.5,8,GPS,1,0,0,0,0,0,0,1601381458812,4254,4255,4253,0,0,0,13,,,,,,,0,0,0,17.0,-11.0,-216.0,0.0,0.0,-215.0,6,51.0,0.0,1.77,0.0,0.0,0.0,0,,,100,100,0,1,0,0,0,0,0,,,,,0.0,0.0,0
23,51.519506,5.85798,5.1,5.7,0.0,0.18,5.1,5.1,3.8,0.18,2262,2020-09-29 12:10:58,2020-09-29 14:10:58.910,16,0,0,12.141,51.519506,5.857977,0.0,0.0,0.0,-1.6,-1.2,-21.6,0,1,0,98,100,-6670,3668,12141,2941.5,8,GPS,1,0,0,0,0,0,0,1601381458909,4254,4255,4253,0,0,0,13,,,,,,,0,0,0,16.0,-12.0,-216.0,0.0,0.0,-215.0,6,51.0,0.0,1.79,0.0,0.0,0.0,0,,,100,100,0,1,0,0,0,0,0,,,,,0.0,0.0,0
24,51.519506,5.85798,5.1,5.7,0.0,0.18,5.1,5.1,3.8,0.18,2365,2020-09-29 12:10:59,2020-09-29 14:10:59.013,16,0,0,12.141,51.519506,5.857977,0.0,0.0,0.0,-1.7,-1.4,-21.5,0,1,0,98,100,-6670,3668,12141,2941.5,8,GPS,1,0,0,0,0,0,0,1601381459012,4254,4255,4253,0,0,0,13,,,,,,,0,0,0,17.0,-14.0,-215.0,0.0,0.0,-215.0,6,51.0,0.0,1.81,0.0,0.0,0.0,0,,,100,100,0,1,0,0,0,0,0,,,,,0.0,0.0,0
25,51.519506,5.85798,5.1,5.7,0.0,0.18,5.1,5.1,3.8,0.18,2490,2020-09-29 12:10:59,2020-09-29 14:10:59.138,16,0,0,12.141,51.519506,5.857977,0.0,0.0,0.0,-1.7,-1.4,-21.5,0,1,0,98,100,-6670,3668,12141,2941.5,8,GPS,1,0,0,0,0,0,0,1601381459137,4254,4255,4253,0,0,0,13,,,,,,,0,0,0,17.0,-14.0,-215.0,0.0,0.0,-215.0,6,51.0,0.0,1.82,0.0,0.0,0.0,0,,,100,100,0,1,0,0,0,0,0,,,,,0.0,0.0,0
26,51.519506,5.85798,5.2,5.7,0.1,0.18,5.2,5.2,3.8,0.18,2580,2020-09-29 12:10:59,2020-09-29 14:10:59.228,16,0,0,12.141,51.519506,5.857977,0.0,0.0,-0.1,-1.6,-1.3,-21.4,0,1,0,98,100,-6670,3668,12141,2941.5,8,GPS,1,0,0,0,0,0,0,1601381459227,4254,4255,4253,0,0,0,13,,,,,,,0,0,0,16.0,-13.0,-214.0,0.0,0.0,-215.0,6,52.0,1.0,1.82,0.0,0.0,-1.0,0,,,100,100,0,1,0,0,0,0,0,,,,,0.0,0.0,0
27,51.519507,5.85798,5.2,5.8,0.1,0.18,5.2,5.2,3.8,0.18,2672,2020-09-29 12:10:59,2020-09-29 14:10:59.320,16,0,0,12.5,51.519506,5.857977,0.0,0.0,-0.1,-1.7,-1.2,-21.4,0,1,0,98,100,-6086,3662,12500,2941.5,8,GPS,1,0,0,0,0,0,0,1601381459319,4254,4255,4253,0,0,0,13,,,,,,,0,0,0,17.0,-12.0,-214.0,0.0,0.0,-215.0,6,52.0,1.0,1.83,0.0,0.0,-1.0,0,,,100,100,0,1,0,0,0,0,0,,,,,0.0,0.0,0
28,51.519507,5.85798,5.2,5.8,0.1,0.18,5.2,5.2,3.8,0.18,2774,2020-09-29 12:10:59,2020-09-29 14:10:59.422,16,0,0,12.5,51.519506,5.857977,0.0,0.0,-0.1,-1.7,-1.2,-21.5,0,1,0,98,100,-6086,3662,12500,2941.5,8,GPS,1,0,0,0,0,0,0,1601381459421,4254,4255,4253,0,0,0,13,,,,,,,0,0,0,17.0,-12.0,-215.0,0.0,0.0,-215.0,6,52.0,1.0,1.82,0.0,0.0,-1.0,0,,,100,100,0,1,0,0,0,0,0,,,,,0.0,0.0,0
29,51.519507,5.85798,5.2,5.8,0.0,0.18,5.2,5.2,3.8,0.18,2883,2020-09-29 12:10:59,2020-09-29 14:10:59.531,16,0,0,12.5,51.519506,5.857977,0.0,0.0,0.0,-1.6,-1.3,-21.5,0,1,0,98,100,-6086,3662,12500,2941.5,8,GPS,1,0,0,0,0,0,0,1601381459530,4254,4255,4253,0,0,0,13,,,,,,,0,0,0,16.0,-13.0,-215.0,0.0,0.0,-215.0,6,52.0,0.0,1.83,0.0,0.0,0.0,0,,,100,100,0,1,0,0,0,0,0,,,,,0.0,0.0,0
30,51.519507,5.85798,5.2,5.8,0.0,0.18,5.2,5.2,3.8,0.18,2986,2020-09-29 12:10:59,2020-09-29 14:10:59.634,16,0,0,12.5,51.519506,5.857977,0.0,0.0,0.0,-1.7,-1.3,-21.6,0,1,0,98,100,-6086,3662,12500,2941.5,8,GPS,1,0,0,0,0,0,0,1601381459633,4254,4255,4253,0,0,0,13,,,,,,,0,0,0,17.0,-13.0,-216.0,0.0,0.0,-215.0,6,52.0,0.0,1.8,0.0,0.0,0.0,0,,,100,100,0,1,0,0,0,0,0,,,,,0.0,0.0,0
31,51.519507,5.85798,5.2,5.8,0.0,0.18,5.2,5.2,3.8,0.18,3078,2020-09-29 12:10:59,2020-09-29 14:10:59.726,16,0,0,12.5,51.519506,5.857977,0.0,0.0,0.0,-1.8,-1.1,-21.6,0,1,0,98,100,-6086,3662,12500,2941.5,8,GPS,1,0,0,0,0,0,0,1601381459725,4254,4255,4253,0,0,0,13,,,,,,,0,0,0,18.0,-11.0,-216.0,0.0,0.0,-215.0,6,52.0,0.0,1.79,0.0,0.0,0.0,0,,,100,100,0,1,0,0,0,0,0,,,,,0.0,0.0,0
32,51.519507,5.85798,5.2,5.8,0.0,0.18,5.2,5.2,3.8,0.18,3179,2020-09-29 12:10:59,2020-09-29 14:10:59.827,16,0,0,12.5,51.519506,5.857977,0.0,0.0,0.0,-1.5,-1.3,-21.6,0,1,0,98,100,-6086,3662,12500,2941.5,8,GPS,1,0,0,0,0,0,0,1601381459826,4254,4255,4253,0,0,0,13,,,,,,,0,0,0,15.0,-13.0,-216.0,0.0,0.0,-215.0,6,52.0,0.0,1.77,0.0,0.0,0.0,0,,,100,100,0,1,0,0,0,0,0,,,,,0.0,0.0,0
33,51.519507,5.85798,5.2,5.8,0.0,0.18,5.2,5.2,3.8,0.18,3282,2020-09-29 12:10:59,2020-09-29 14:10:59.930,16,0,0,12.5,51.519506,5.857977,0.0,0.0,0.0,-1.4,-1.7,-21.7,0,1,0,98,100,-6086,3662,12500,2941.5,8,GPS,1,0,0,0,0,0,0,1601381459929,4254,4255,4253,0,0,0,13,,,,,,,0,0,0,14.0,-17.0,-217.0,0.0,0.0,-215.0,6,52.0,0.0,1.77,0.0,0.0,0.0,0,,,100,100,0,1,0,0,0,0,0,,,,,0.0,0.0,0
34,51.519507,5.85798,5.2,5.8,0.0,0.18,5.2,5.2,3.8,0.18,3384,2020-09-29 12:11:00,2020-09-29 14:11:00.031,16,0,0,12.5,51.519506,5.857977,0.0,0.0,0.0,-1.4,-1.6,-21.8,0,1,0,98,100,-6086,3662,12500,2941.5,8,GPS,1,0,0,0,0,0,0,1601381460031,4254,4255,4253,0,0,0,13,,,,,,,0,0,0,14.0,-16.0,-218.0,0.0,0.0,-215.0,6,52.0,0.0,1.8,0.0,0.0,0.0,0,,,100,100,0,1,0,0,0,0,0,,,,,0.0,0.0,0
35,51.519507,5.85798,5.2,5.9,0.0,0.18,5.2,5.2,3.8,0.18,3497,2020-09-29 12:11:00,2020-09-29 14:11:00.145,16,0,0,12.5,51.519506,5.857977,0.0,0.0,0.0,-1.5,-1.7,-21.9,0,1,0,98,100,-6086,3662,12500,2941.5,8,GPS,1,0,0,0,0,0,0,1601381460144,4254,4255,4253,0,0,0,13,,,,,,,0,0,0,15.0,-17.0,-219.0,0.0,0.0,-215.0,6,52.0,0.0,1.82,0.0,0.0,0.0,0,,,100,100,0,1,0,0,0,0,0,,,,,0.0,0.0,0
36,51.519507,5.85798,5.2,5.8,0.0,0.18,5.2,5.2,3.8,0.18,3580,2020-09-29 12:11:00,2020-09-29 14:11:00.227,16,0,0,12.5,51.519506,5.857977,0.0,0.0,0.0,-1.6,-1.7,-21.9,0,1,0,98,100,-6086,3662,12500,2941.5,8,GPS,1,0,0,0,0,0,0,1601381460227,4254,4255,4253,0,0,0,13,,,,,,,0,0,0,16.0,-17.0,-219.0,0.0,0.0,-215.0,6,52.0,0.0,1.84,0.0,0.0,0.0,0,,,100,100,0,1,0,0,0,0,0,,,,,0.0,0.0,0
37,51.519507,5.85798,5.2,5.8,0.0,0.19,5.2,5.2,3.8,0.19,3672,2020-09-29 12:11:00,2020-09-29 14:11:00.320,16,0,0,12.5,51.519506,5.857977,0.0,0.0,0.0,-1.7,-1.7,-21.8,0,1,0,98,100,-6086,3662,12500,2941.5,8,GPS,1,0,0,0,0,0,0,1601381460319,4254,4255,4253,0,0,0,13,,,,,,,0,0,0,17.0,-17.0,-218.0,0.0,0.0,-215.0,6,52.0,0.0,1.85,0.0,0.0,0.0,0,,,100,100,0,1,0,0,0,0,0,,,,,0.0,0.0,0
38,51.519507,5.85798,5.2,5.8,0.0,0.19,5.2,5.2,3.8,0.19,3799,2020-09-29 12:11:00,2020-09-29 14:11:00.447,16,0,0,12.5,51.519506,5.857977,0.0,0.0,0.0,-1.6,-1.3,-21.9,0,1,0,98,100,-6086,3662,12500,2941.5,8,GPS,1,0,0,0,0,0,0,1601381460446,4254,4255,4253,0,0,0,13,,,,,,,0,0,0,16.0,-13.0,-219.0,0.0,0.0,-215.0,6,52.0,0.0,1.85,0.0,0.0,0.0,0,,,100,100,0,1,0,0,0,0,0,,,,,0.0,0.0,0
39,51.519507,5.85798,5.2,5.8,0.0,0.18,5.2,5.2,3.8,0.19,3883,2020-09-29 12:11:00,2020-09-29 14:11:00.530,16,0,0,12.5,51.519506,5.857977,0.0,0.0,0.0,-1.5,-1.2,-21.8,0,1,0,98,100,-6086,3662,12500,2941.5,8,GPS,1,0,0,0,0,0,0,1601381460530,4254,4255,4253,0,0,0,13,,,,,,,0,0,0,15.0,-12.0,-218.0,0.0,0.0,-215.0,6,52.0,0.0,1.84,0.0,0.0,0.0,0,,,100,100,0,1,0,0,0,0,0,,,,,0.0,0.0,0
40,51.519507,5.85798,5.2,5.8,0.0,0.18,5.2,5.2,3.8,0.19,3983,2020-09-29 12:11:00,2020-09-29 14:11:00.631,16,0,0,12.5,51.519506,5.857977,0.0,0.0,0.0,-1.3,-1.0,-21.8,0,1,0,98,100,-6086,3662,12500,2941.5,8,GPS,1,0,0,0,0,0,0,1601381460630,4254,4255,4253,0,0,0,13,,,,,,,0,0,0,13.0,-10.0,-218.0,0.0,0.0,-215.0,6,52.0,0.0,1.83,0.0,0.0,0.0,0,,,100,100,0,1,0,0,0,0,0,,,,,0.0,0.0,0
41,51.519507,5.85798,5.2,5.8,0.0,0.18,5.2,5.2,3.8,0.19,4081,2020-09-29 12:11:00,2020-09-29 14:11:00.729,16,0,0,12.5,51.519506,5.857977,0.0,0.0,0.0,-1.3,-1.0,-21.7,0,1,0,98,100,-6086,3662,12500,2941.5,8,GPS,1,0,0,0,0,0,0,1601381460728,4254,4255,4253,0,0,0,13,,,,,,,0,0,0,13.0,-10.0,-217.0,0.0,0.0,-215.0,6,52.0,0.0,1.83,0.0,0.0,0.0,0,,,100,100,0,1,0,0,0,0,0,,,,,0.0,0.0,0
42,51.519507,5.85798,5.2,5.8,0.0,0.18,5.2,5.2,3.8,0.19,4181,2020-09-29 12:11:00,2020-09-29 14:11:00.828,16,0,0,12.5,51.519506,5.857977,0.0,0.0,0.0,-1.5,-1.2,-21.7,0,1,0,98,100,-6086,3662,12500,2941.5,8,GPS,1,0,0,0,0,0,0,1601381460828,4254,4255,4253,0,0,0,13,,,,,,,0,0,0,15.0,-12.0,-217.0,0.0,0.0,-215.0,6,52.0,0.0,1.82,0.0,0.0,0.0,0,,,100,100,0,1,0,0,0,0,0,,,,,0.0,0.0,0
43,51.519507,5.85798,5.2,5.8,0.0,0.18,5.2,5.2,3.8,0.19,4283,2020-09-29 12:11:00,2020-09-29 14:11:00.931,16,0,0,12.5,51.519506,5.857977,0.0,0.0,0.0,-1.7,-1.1,-21.7,0,1,0,98,100,-6086,3662,12500,2941.5,8,GPS,1,0,0,0,0,0,0,1601381460930,4254,4255,4253,0,0,0,13,,,,,,,0,0,0,17.0,-11.0,-217.0,0.0,0.0,-215.0,6,52.0,0.0,1.81,0.0,0.0,0.0,0,,,100,100,0,1,0,0,0,0,0,,,,,0.0,0.0,0
44,51.519507,5.85798,5.2,5.8,0.0,0.18,5.2,5.2,3.8,0.19,4379,2020-09-29 12:11:01,2020-09-29 14:11:01.026,16,0,0,12.5,51.519506,5.857977,0.0,0.0,0.0,-1.6,-1.0,-21.7,0,1,0,98,100,-6086,3662,12500,2941.5,8,GPS,1,0,0,0,0,0,0,1601381461026,4254,4255,4253,0,0,0,13,,,,,,,0,0,0,16.0,-10.0,-217.0,0.0,0.0,-215.0,6,52.0,0.0,1.81,0.0,0.0,0.0,0,,,100,100,0,1,0,0,0,0,0,,,,,0.0,0.0,0
45,51.519507,5.85798,5.2,5.8,0.0,0.18,5.2,5.2,3.8,0.19,4500,2020-09-29 12:11:01,2020-09-29 14:11:01.148,16,0,0,12.5,51.519506,5.857977,0.0,0.0,0.0,-1.6,-1.1,-21.7,0,1,0,98,100,-6086,3662,12500,2941.5,8,GPS,1,0,0,0,0,0,0,1601381461147,4254,4255,4253,0,0,0,13,,,,,,,0,0,0,16.0,-11.0,-217.0,0.0,0.0,-215.0,6,52.0,0.0,1.82,0.0,0.0,0.0,0,,,100,100,0,1,0,0,0,0,0,,,,,0.0,0.0,0
46,51.519507,5.85798,5.2,5.8,0.0,0.18,5.2,5.2,3.8,0.19,4600,2020-09-29 12:11:01,2020-09-29 14:11:01.247,16,0,0,12.5,51.519506,5.857977,0.0,0.0,0.0,-1.4,-1.3,-21.6,0,1,0,98,100,-6086,3662,12500,2941.5,8,GPS,1,0,0,0,0,0,0,1601381461247,4254,4255,4253,0,0,0,13,,,,,,,0,0,0,14.0,-13.0,-216.0,0.0,0.0,-215.0,6,52.0,0.0,1.85,0.0,0.0,0.0,0,,,100,100,0,1,0,0,0,0,0,,,,,0.0,0.0,0
47,51.519507,5.85798,5.2,5.8,0.0,0.19,5.2,5.2,3.8,0.19,4681,2020-09-29 12:11:01,2020-09-29 14:11:01.329,16,0,0,12.352,51.519506,5.857977,0.0,0.0,0.0,-1.3,-1.3,-21.7,0,1,0,98,100,-6872,3659,12352,2941.5,8,GPS,1,0,0,0,0,0,0,1601381461328,4095,4092,4098,0,0,0,13,,,,,,,0,0,0,13.0,-13.0,-217.0,0.0,0.0,-215.0,6,52.0,0.0,1.88,0.0,0.0,0.0,0,,,100,100,0,1,0,0,0,0,0,,,,,0.0,0.0,0
48,51.519507,5.85798,5.2,5.8,0.0,0.19,5.2,5.2,3.8,0.19,4799,2020-09-29 12:11:01,2020-09-29 14:11:01.447,16,0,0,12.352,51.519506,5.857977,0.0,0.0,0.0,-1.3,-1.4,-21.6,0,1,0,98,100,-6872,3659,12352,2941.5,8,GPS,1,0,0,0,0,0,0,1601381461446,4095,4092,4098,0,0,0,13,,,,,,,0,0,0,13.0,-14.0,-216.0,0.0,0.0,-215.0,6,52.0,0.0,1.93,0.0,0.0,0.0,0,,,100,100,0,1,0,0,0,0,0,,,,,0.0,0.0,0
49,51.519507,5.85798,5.2,5.8,0.0,0.2,5.2,5.2,3.8,0.2,4883,2020-09-29 12:11:01,2020-09-29 14:11:01.531,16,0,0,12.352,51.519506,5.857977,0.0,0.0,0.0,-1.3,-1.5,-21.6,0,1,0,98,100,-6872,3659,12352,2941.5,8,GPS,1,0,0,0,0,0,0,1601381461530,4095,4092,4098,0,0,0,13,,,,,,,0,0,0,13.0,-15.0,-216.0,0.0,0.0,-215.0,6,52.0,0.0,1.97,0.0,0.0,0.0,0,,,100,100,0,1,0,0,0,0,0,,,,,0.0,0.0,0
50,51.519507,5.85798,5.2,5.8,0.0,0.2,5.2,5.2,3.8,0.2,4997,2020-09-29 12:11:01,2020-09-29 14:11:01.645,16,0,0,12.352,51.519506,5.857977,0.0,0.0,0.0,-1.2,-1.6,-21.6,0,1,0,98,100,-6872,3659,12352,2941.5,8,GPS,1,0,0,0,0,0,0,1601381461644,4095,4092,4098,0,0,0,13,,,,,,,0,0,0,12.0,-16.0,-216.0,0.0,0.0,-215.0,6,52.0,0.0,2.02,0.0,0.0,0.0,0,,,100,100,0,1,0,0,0,0,0,,,,,0.0,0.0,0
51,51.519507,5.85798,5.2,5.8,0.0,0.21,5.2,5.2,3.8,0.21,5080,2020-09-29 12:11:01,2020-09-29 14:11:01.727,16,0,0,12.352,51.519506,5.857977,0.0,0.0,0.0,-1.3,-1.4,-21.7,0,1,0,98,100,-6872,3659,12352,2941.5,8,GPS,1,0,0,0,0,0,0,1601381461727,4095,4092,4098,0,0,0,13,,,,,,,0,0,0,13.0,-14.0,-217.0,0.0,0.0,-215.0,6,52.0,0.0,2.07,0.0,0.0,0.0,0,,,100,100,0,1,0,0,0,0,0,,,,,0.0,0.0,0
52,51.519507,5.85798,5.2,5.8,0.0,0.21,5.2,5.2,3.8,0.21,5182,2020-09-29 12:11:01,2020-09-29 14:11:01.829,16,0,0,12.352,51.519506,5.857977,0.0,0.0,0.0,-1.2,-1.8,-21.7,0,1,0,98,100,-6872,3659,12352,2941.5,8,GPS,1,0,0,0,0,0,0,1601381461829,4095,4092,4098,0,0,0,13,,,,,,,0,0,0,12.0,-18.0,-217.0,0.0,0.0,-215.0,6,52.0,0.0,2.12,0.0,0.0,0.0,0,,,100,100,0,1,0,0,0,0,0,,,,,0.0,0.0,0
53,51.519507,5.85798,5.1,5.8,0.0,0.22,5.2,5.2,3.8,0.22,5283,2020-09-29 12:11:01,2020-09-29 14:11:01.930,16,0,0,12.352,51.519506,5.857977,0.0,0.0,0.0,-1.0,-1.9,-21.7,0,1,0,98,100,-6872,3659,12352,2941.5,8,GPS,1,0,0,0,0,0,0,1601381461930,4095,4092,4098,0,0,0,13,,,,,,,0,0,0,10.0,-19.0,-217.0,0.0,0.0,-215.0,6,51.0,0.0,2.16,0.0,0.0,0.0,0,,,100,100,0,1,0,0,0,0,0,,,,,0.0,0.0,0
54,51.519507,5.85798,5.1,5.8,0.0,0.22,5.2,5.2,3.8,0.22,5384,2020-09-29 12:11:02,2020-09-29 14:11:02.031,16,0,0,12.352,51.519506,5.857977,0.0,0.0,0.0,-1.1,-2.0,-21.6,0,1,0,98,100,-6872,3659,12352,2941.5,8,GPS,1,0,0,0,0,0,0,1601381462031,4095,4092,4098,0,0,0,13,,,,,,,0,0,0,11.0,-20.0,-216.0,0.0,0.0,-215.0,6,51.0,0.0,2.21,0.0,0.0,0.0,0,,,100,100,0,1,0,0,0,0,0,,,,,0.0,0.0,0
55,51.519507,5.85798,5.1,5.8,0.0,0.23,5.2,5.2,3.8,0.23,5467,2020-09-29 12:11:02,2020-09-29 14:11:02.114,16,0,0,12.352,51.519506,5.857977,0.0,0.0,0.0,-1.3,-1.9,-21.6,0,1,0,98,100,-6872,3659,12352,2941.5,8,GPS,1,0,0,0,0,0,0,1601381462114,4095,4092,4098,0,0,0,13,,,,,,,0,0,0,13.0,-19.0,-216.0,0.0,0.0,-215.0,6,51.0,0.0,2.25,0.0,0.0,0.0,0,,,100,100,0,1,0,0,0,0,0,,,,,0.0,0.0,0
56,51.519507,5.85798,5.1,5.8,0.0,0.23,5.2,5.2,3.8,0.23,5589,2020-09-29 12:11:02,2020-09-29 14:11:02.236,16,0,0,12.352,51.519506,5.857977,0.0,0.0,0.0,-1.6,-1.7,-21.5,0,1,0,98,100,-6872,3659,12352,2941.5,8,GPS,1,0,0,0,0,0,0,1601381462236,4095,4092,4098,0,0,0,13,,,,,,,0,0,0,16.0,-17.0,-215.0,0.0,0.0,-215.0,6,51.0,0.0,2.26,0.0,0.0,0.0,0,,,100,100,0,1,0,0,0,0,0,,,,,0.0,0.0,0
57,51.519507,5.85798,5.1,5.8,0.0,0.23,5.2,5.2,3.8,0.23,5664,2020-09-29 12:11:02,2020-09-29 14:11:02.312,16,0,0,12.352,51.519506,5.857977,0.0,0.0,0.0,-1.7,-1.7,-21.5,0,1,0,98,100,-6872,3659,12352,2941.5,8,GPS,1,0,0,0,0,0,0,1601381462311,4095,4092,4098,0,0,0,13,,,,,,,0,0,0,17.0,-17.0,-215.0,0.0,0.0,-215.0,6,51.0,0.0,2.27,0.0,0.0,0.0,0,,,100,100,0,1,0,0,0,0,0,,,,,0.0,0.0,0
58,51.519507,5.85798,5.1,5.8,0.0,0.23,5.2,5.2,3.8,0.23,5782,2020-09-29 12:11:02,2020-09-29 14:11:02.429,16,0,0,12.352,51.519506,5.857977,0.0,0.0,0.0,-1.9,-1.8,-21.5,0,1,0,98,100,-6872,3659,12352,2941.5,8,GPS,1,0,0,0,0,0,0,1601381462429,4095,4092,4098,0,0,0,13,,,,,,,0,0,0,19.0,-18.0,-215.0,0.0,0.0,-215.0,6,51.0,0.0,2.28,0.0,0.0,0.0,0,,,100,100,0,1,0,0,0,0,0,,,,,0.0,0.0,0
59,51.519507,5.85798,5.1,5.8,0.0,0.23,5.2,5.2,3.8,0.23,5871,2020-09-29 12:11:02,2020-09-29 14:11:02.518,16,0,0,12.352,51.519506,5.857977,0.0,0.0,0.0,-1.9,-1.7,-21.5,0,1,0,98,100,-6872,3659,12352,2941.5,8,GPS,1,0,0,0,0,0,0,1601381462518,4095,4092,4098,0,0,0,13,,,,,,,0,0,0,19.0,-17.0,-215.0,0.0,0.0,-215.0,6,51.0,0.0,2.29,0.0,0.0,0.0,0,,,100,100,0,1,0,0,0,0,0,,,,,0.0,0.0,0
60,51.519507,5.85798,5.1,5.8,0.0,0.23,5.2,5.2,3.8,0.23,5973,2020-09-29 12:11:02,2020-09-29 14:11:02.621,16,0,0,12.352,51.519506,5.857977,0.0,0.0,0.0,-1.7,-1.8,-21.4,0,1,0,98,100,-6872,3659,12352,2941.5,8,GPS,1,0,0,0,0,0,0,1601381462620,4095,4092,4098,0,0,0,13,,,,,,,0,0,0,17.0,-18.0,-214.0,0.0,0.0,-215.0,6,51.0,0.0,2.3,0.0,0.0,0.0,0,,,100,100,0,1,0,0,0,0,0,,,,,0.0,0.0,0
61,51.519507,5.85798,5.1,5.8,0.0,0.23,5.2,5.2,3.8,0.23,6089,2020-09-29 12:11:02,2020-09-29 14:11:02.737,16,0,0,12.352,51.519506,5.857977,0.0,0.0,0.0,-1.6,-1.9,-21.4,0,1,0,98,100,-6872,3659,12352,2941.5,8,GPS,1,0,0,0,0,0,0,1601381462736,4095,4092,4098,0,0,0,13,,,,,,,0,0,0,16.0,-19.0,-214.0,0.0,0.0,-215.0,6,51.0,0.0,2.31,0.0,0.0,0.0,0,,,100,100,0,1,0,0,0,0,0,,,,,0.0,0.0,0
62,51.519507,5.85798,5.1,5.8,0.0,0.23,5.2,5.2,3.8,0.23,6189,2020-09-29 12:11:02,2020-09-29 14:11:02.836,16,0,0,12.352,51.519506,5.857977,0.0,0.0,0.0,-1.5,-2.2,-21.4,0,1,0,98,100,-6872,3659,12352,2941.5,8,GPS,1,0,0,0,0,0,0,1601381462836,4095,4092,4098,0,0,0,13,,,,,,,0,0,0,15.0,-22.0,-214.0,0.0,0.0,-215.0,6,51.0,0.0,2.34,0.0,0.0,0.0,0,,,100,100,0,1,0,0,0,0,0,,,,,0.0,0.0,0
63,51.519507,5.85798,5.1,5.7,0.0,0.24,5.2,5.2,3.8,0.24,6272,2020-09-29 12:11:02,2020-09-29 14:11:02.920,16,0,0,12.352,51.519506,5.857977,0.0,0.0,0.0,-1.4,-2.4,-21.4,0,1,0,98,100,-6872,3659,12352,2941.5,8,GPS,1,0,0,0,0,0,0,1601381462919,4095,4092,4098,0,0,0,13,,,,,,,0,0,0,14.0,-24.0,-214.0,0.0,0.0,-215.0,6,51.0,0.0,2.36,0.0,0.0,0.0,0,,,100,100,0,1,0,0,0,0,0,,,,,0.0,0.0,0
64,51.519507,5.85798,5.1,5.7,0.0,0.24,5.2,5.2,3.8,0.24,6398,2020-09-29 12:11:03,2020-09-29 14:11:03.045,16,0,0,12.352,51.519506,5.857977,0.0,0.0,0.0,-1.6,-2.1,-21.5,0,1,0,98,100,-6872,3659,12352,2941.5,8,GPS,1,0,0,0,0,0,0,1601381463045,4095,4092,4098,0,0,0,13,,,,,,,0,0,0,16.0,-21.0,-215.0,0.0,0.0,-215.0,6,51.0,0.0,2.41,0.0,0.0,0.0,0,,,100,100,0,1,0,0,0,0,0,,,,,0.0,0.0,0
65,51.519508,5.85798,5.1,5.7,0.0,0.24,5.2,5.2,3.8,0.24,6490,2020-09-29 12:11:03,2020-09-29 14:11:03.137,16,0,0,12.352,51.519506,5.857977,0.0,0.0,0.0,-1.7,-2.0,-21.5,0,1,0,98,100,-6872,3659,12352,2941.5,8,GPS,1,0,0,0,0,0,0,1601381463137,4095,4092,4098,0,0,0,13,,,,,,,0,0,0,17.0,-20.0,-215.0,0.0,0.0,-215.0,6,51.0,0.0,2.45,0.0,0.0,0.0,0,,,100,100,0,1,0,0,0,0,0,,,,,0.0,0.0,0
66,51.519508,5.85798,5.1,5.7,0.0,0.25,5.2,5.2,3.8,0.25,6599,2020-09-29 12:11:03,2020-09-29 14:11:03.247,16,0,0,12.352,51.519506,5.857977,0.0,0.0,0.0,-1.7,-2.2,-21.5,0,1,0,98,100,-6872,3659,12352,2941.5,8,GPS,1,0,0,0,0,0,0,1601381463246,4095,4092,4098,0,0,0,13,,,,,,,0,0,0,17.0,-22.0,-215.0,0.0,0.0,-215.0,6,51.0,0.0,2.49,0.0,0.0,0.0,0,,,100,100,0,1,0,0,0,0,0,,,,,0.0,0.0,0
67,51.519508,5.857981,5.1,5.7,0.0,0.25,5.2,5.2,3.8,0.25,6698,2020-09-29 12:11:03,2020-09-29 14:11:03.345,16,0,0,12.183,51.519506,5.857977,0.0,0.0,0.0,-1.8,-2.4,-21.5,0,1,0,98,100,-7218,3655,12183,2941.5,8,GPS,1,0,0,0,0,0,0,1601381463345,4095,4092,4098,0,0,0,13,,,,,,,0,0,0,18.0,-24.0,-215.0,0.0,0.0,-215.0,6,51.0,0.0,2.54,0.0,0.0,0.0,0,,,100,100,0,1,0,0,0,0,0,,,,,0.0,0.0,0
68,51.519508,5.857981,5.1,5.7,0.0,0.26,5.2,5.2,3.8,0.26,6800,2020-09-29 12:11:03,2020-09-29 14:11:03.447,16,0,0,12.183,51.519506,5.857977,0.0,0.0,0.0,-2.0,-2.7,-21.5,0,1,0,98,100,-7218,3655,12183,2941.5,8,GPS,1,0,0,0,0,0,0,1601381463447,4095,4092,4098,0,0,0,13,,,,,,,0,0,0,20.0,-27.0,-215.0,0.0,0.0,-215.0,6,51.0,0.0,2.63,0.0,0.0,0.0,0,,,100,100,0,1,0,0,0,0,0,,,,,0.0,0.0,0
69,51.519508,5.857981,5.1,5.7,0.0,0.27,5.2,5.2,3.8,0.27,6883,2020-09-29 12:11:03,2020-09-29 14:11:03.531,16,0,0,12.183,51.519506,5.857977,0.0,0.0,0.0,-2.1,-2.9,-21.4,0,1,0,98,100,-7218,3655,12183,2941.5,8,GPS,1,0,0,0,0,0,0,1601381463530,4095,4092,4098,0,0,0,13,,,,,,,0,0,0,21.0,-29.0,-214.0,0.0,0.0,-215.0,6,51.0,0.0,2.71,0.0,0.0,0.0,0,,,100,100,0,1,0,0,0,0,0,,,,,0.0,0.0,0
70,51.519507,5.857981,5.1,5.7,0.0,0.28,5.2,5.2,3.8,0.28,7001,2020-09-29 12:11:03,2020-09-29 14:11:03.649,16,0,0,12.183,51.519506,5.857977,0.0,0.0,0.0,-2.1,-2.8,-21.4,0,1,0,98,100,-7218,3655,12183,2941.5,8,GPS,1,0,0,0,0,0,0,1601381463648,4095,4092,4098,0,0,0,13,,,,,,,0,0,0,21.0,-28.0,-214.0,0.0,0.0,-215.0,6,51.0,0.0,2.79,0.0,0.0,0.0,0,,,100,100,0,1,0,0,0,0,0,,,,,0.0,0.0,0
71,51.519507,5.857981,5.1,5.7,0.0,0.29,5.2,5.2,3.8,0.29,7069,2020-09-29 12:11:03,2020-09-29 14:11:03.717,16,0,0,12.183,51.519506,5.857977,0.0,0.0,0.0,-2.2,-2.9,-21.5,0,1,0,98,100,-7218,3655,12183,2941.5,8,GPS,1,0,0,0,0,0,0,1601381463716,4095,4092,4098,0,0,0,13,,,,,,,0,0,0,22.0,-29.0,-215.0,0.0,0.0,-215.0,6,51.0,0.0,2.86,0.0,0.0,0.0,0,,,100,100,0,1,0,0,0,0,0,,,,,0.0,0.0,0
72,51.519507,5.857981,5.1,5.7,0.0,0.29,5.2,5.2,3.8,0.29,7168,2020-09-29 12:11:03,2020-09-29 14:11:03.816,16,0,0,12.183,51.519506,5.857977,0.0,0.0,0.0,-2.4,-2.9,-21.5,0,1,0,98,100,-7218,3655,12183,2941.5,8,GPS,1,0,0,0,0,0,0,1601381463815,4095,4092,4098,0,0,0,13,,,,,,,0,0,0,24.0,-29.0,-215.0,0.0,0.0,-215.0,6,51.0,0.0,2.94,0.0,0.0,0.0,0,,,100,100,0,1,0,0,0,0,0,,,,,0.0,0.0,0
73,51.519507,5.857981,5.1,5.7,0.0,0.3,5.2,5.2,3.8,0.3,7302,2020-09-29 12:11:03,2020-09-29 14:11:03.950,16,0,0,12.183,51.519506,5.857977,0.0,0.0,0.0,-2.5,-3.1,-21.5,0,1,0,98,100,-7218,3655,12183,2941.5,8,GPS,1,0,0,0,0,0,0,1601381463949,4095,4092,4098,0,0,0,13,,,,,,,0,0,0,25.0,-31.0,-215.0,0.0,0.0,-215.0,6,51.0,0.0,3.0,0.0,0.0,0.0,0,,,100,100,0,1,0,0,0,0,0,,,,,0.0,0.0,0
74,51.519507,5.857981,5.1,5.7,0.0,0.31,5.2,5.2,3.8,0.31,7386,2020-09-29 12:11:04,2020-09-29 14:11:04.034,16,0,0,12.183,51.519506,5.857977,0.0,0.0,0.0,-2.4,-3.1,-21.4,0,1,0,98,100,-7218,3655,12183,2941.5,8,GPS,1,0,0,0,0,0,0,1601381464033,4095,4092,4098,0,0,0,13,,,,,,,0,0,0,24.0,-31.0,-214.0,0.0,0.0,-215.0,6,51.0,0.0,3.07,0.0,0.0,0.0,0,,,100,100,0,1,0,0,0,0,0,,,,,0.0,0.0,0
75,51.519508,5.857982,5.1,5.7,0.0,0.31,5.2,5.2,3.8,0.31,7497,2020-09-29 12:11:04,2020-09-29 14:11:04.145,16,0,0,12.183,51.519506,5.857977,0.0,0.0,0.0,-2.2,-3.3,-21.4,0,1,0,98,100,-7218,3655,12183,2941.5,8,GPS,1,0,0,0,0,0,0,1601381464144,4095,4092,4098,0,0,0,13,,,,,,,0,0,0,22.0,-33.0,-214.0,0.0,0.0,-215.0,6,51.0,0.0,3.12,0.0,0.0,0.0,0,,,100,100,0,1,0,0,0,0,0,,,,,0.0,0.0,0
76,51.519508,5.857982,5.1,5.7,0.0,0.32,5.2,5.2,3.8,0.32,7564,2020-09-29 12:11:04,2020-09-29 14:11:04.212,16,0,0,12.183,51.519506,5.857977,0.0,0.0,0.0,-2.1,-3.2,-21.4,0,1,0,98,100,-7218,3655,12183,2941.5,8,GPS,1,0,0,0,0,0,0,1601381464211,4095,4092,4098,0,0,0,13,,,,,,,0,0,0,21.0,-32.0,-214.0,0.0,0.0,-215.0,6,51.0,0.0,3.16,0.0,0.0,0.0,0,,,100,100,0,1,0,0,0,0,0,,,,,0.0,0.0,0
77,51.519508,5.857982,5.1,5.7,0.0,0.32,5.2,5.2,3.8,0.32,7683,2020-09-29 12:11:04,2020-09-29 14:11:04.331,16,0,0,12.183,51.519506,5.857977,0.0,0.0,0.0,-2.0,-3.1,-21.5,0,1,0,98,100,-7218,3655,12183,2941.5,8,GPS,1,0,0,0,0,0,0,1601381464330,4095,4092,4098,0,0,0,13,,,,,,,0,0,0,20.0,-31.0,-215.0,0.0,0.0,-215.0,6,51.0,0.0,3.18,0.0,0.0,0.0,0,,,100,100,0,1,0,0,0,0,0,,,,,0.0,0.0,0
78,51.519508,5.857982,5.1,5.7,0.0,0.32,5.2,5.2,3.8,0.32,7771,2020-09-29 12:11:04,2020-09-29 14:11:04.418,16,0,0,12.183,51.519506,5.857977,0.0,0.0,0.0,-2.1,-2.8,-21.4,0,1,0,98,100,-7218,3655,12183,2941.5,8,GPS,1,0,0,0,0,0,0,1601381464418,4095,4092,4098,0,0,0,13,,,,,,,0,0,0,21.0,-28.0,-214.0,0.0,0.0,-215.0,6,51.0,0.0,3.2,0.0,0.0,0.0,0,,,100,100,0,1,0,0,0,0,0,,,,,0.0,0.0,0
79,51.519508,5.857982,5.1,5.7,0.0,0.32,5.2,5.2,3.8,0.32,7871,2020-09-29 12:11:04,2020-09-29 14:11:04.518,16,0,0,12.183,51.519506,5.857977,0.0,0.0,0.0,-2.1,-2.7,-21.4,0,1,0,98,100,-7218,3655,12183,2941.5,8,GPS,1,0,0,0,0,0,0,1601381464518,4095,4092,4098,0,0,0,13,,,,,,,0,0,0,21.0,-27.0,-214.0,0.0,0.0,-215.0,6,51.0,0.0,3.2,0.0,0.0,0.0,0,,,100,100,0,1,0,0,0,0,0,,,,,0.0,0.0,0
80,51.519508,5.857982,5.1,5.7,0.0,0.32,5.2,5.2,3.8,0.32,7987,2020-09-29 12:11:04,2020-09-29 14:11:04.634,16,0,0,12.183,51.519506,5.857977,0.0,0.0,0.0,-1.9,-2.4,-21.4,0,1,0,98,100,-7218,3655,12183,2941.5,8,GPS,1,0,0,0,0,0,0,1601381464634,4095,4092,4098,0,0,0,13,,,,,,,0,0,0,19.0,-24.0,-214.0,0.0,0.0,-215.0,6,51.0,0.0,3.23,0.0,0.0,0.0,0,,,100,100,0,1,0,0,0,0,0,,,,,0.0,0.0,0
81,51.519508,5.857982,5.1,5.7,0.0,0.33,5.2,5.2,3.8,0.33,8071,2020-09-29 12:11:04,2020-09-29 14:11:04.719,16,0,0,12.183,51.519506,5.857977,0.0,0.0,0.0,-2.0,-2.5,-21.5,0,1,0,98,100,-7218,3655,12183,2941.5,8,GPS,1,0,0,0,0,0,0,1601381464718,4095,4092,4098,0,0,0,13,,,,,,,0,0,0,20.0,-25.0,-215.0,0.0,0.0,-215.0,6,51.0,0.0,3.25,0.0,0.0,0.0,0,,,100,100,0,1,0,0,0,0,0,,,,,0.0,0.0,0
82,51.519508,5.857982,5.1,5.6,0.0,0.33,5.2,5.2,3.8,0.33,8168,2020-09-29 12:11:04,2020-09-29 14:11:04.816,16,0,0,12.183,51.519506,5.857977,0.0,0.0,0.0,-2.1,-2.7,-21.5,0,1,0,98,100,-7218,3655,12183,2941.5,8,GPS,1,0,0,0,0,0,0,1601381464815,4095,4092,4098,0,0,0,13,,,,,,,0,0,0,21.0,-27.0,-215.0,0.0,0.0,-215.0,6,51.0,0.0,3.29,0.0,0.0,0.0,0,,,100,100,0,1,0,0,0,0,0,,,,,0.0,0.0,0
83,51.519508,5.857982,5.1,5.6,0.0,0.33,5.2,5.2,3.8,0.33,8264,2020-09-29 12:11:04,2020-09-29 14:11:04.912,16,0,0,12.183,51.519506,5.857977,0.0,0.0,0.0,-2.1,-2.9,-21.4,0,1,0,98,100,-7218,3655,12183,2941.5,8,GPS,1,0,0,0,0,0,0,1601381464911,4095,4092,4098,0,0,0,13,,,,,,,0,0,0,21.0,-29.0,-214.0,0.0,0.0,-215.0,6,51.0,0.0,3.32,0.0,0.0,0.0,0,,,100,100,0,1,0,0,0,0,0,,,,,0.0,0.0,0
84,51.519508,5.857982,5.1,5.6,0.0,0.33,5.2,5.2,3.8,0.33,8368,2020-09-29 12:11:05,2020-09-29 14:11:05.015,16,0,0,12.183,51.519506,5.857977,0.0,0.0,0.0,-2.1,-3.1,-21.4,0,1,0,98,100,-7218,3655,12183,2941.5,8,GPS,1,0,0,0,0,0,0,1601381465015,4095,4092,4098,0,0,0,13,,,,,,,0,0,0,21.0,-31.0,-214.0,0.0,0.0,-215.0,6,51.0,0.0,3.34,0.0,0.0,0.0,0,,,100,100,0,1,0,0,0,0,0,,,,,0.0,0.0,0
85,51.519508,5.857982,5.1,5.6,0.0,0.34,5.2,5.2,3.8,0.34,8489,2020-09-29 12:11:05,2020-09-29 14:11:05.136,16,0,0,12.183,51.519506,5.857977,0.0,0.0,0.0,-2.1,-3.2,-21.4,0,1,0,98,100,-7218,3655,12183,2941.5,8,GPS,1,0,0,0,0,0,0,1601381465136,4095,4092,4098,0,0,0,13,,,,,,,0,0,0,21.0,-32.0,-214.0,0.0,0.0,-215.0,6,51.0,0.0,3.36,0.0,0.0,0.0,0,,,100,100,0,1,0,0,0,0,0,,,,,0.0,0.0,0
86,51.519508,5.857982,5.1,5.6,0.0,0.34,5.2,5.2,3.8,0.34,8579,2020-09-29 12:11:05,2020-09-29 14:11:05.227,16,0,0,12.183,51.519506,5.857977,0.0,0.0,0.0,-2.1,-3.2,-21.5,0,1,0,98,100,-7218,3655,12183,2941.5,8,GPS,1,0,0,0,0,0,0,1601381465226,4095,4092,4098,0,0,0,13,,,,,,,0,0,0,21.0,-32.0,-215.0,0.0,0.0,-215.0,6,51.0,0.0,3.4,0.0,0.0,0.0,0,,,100,100,0,1,0,0,0,0,0,,,,,0.0,0.0,0
87,51.519508,5.857982,5.1,5.6,0.0,0.34,5.2,5.2,3.8,0.34,8678,2020-09-29 12:11:05,2020-09-29 14:11:05.325,16,0,0,12.289,51.519506,5.857977,0.0,0.0,0.0,-2.2,-3.0,-21.4,0,1,0,98,100,-7176,3651,12289,2941.5,8,GPS,1,0,0,0,0,0,0,1601381465325,4095,4092,4098,0,0,0,13,,,,,,,0,0,0,22.0,-30.0,-214.0,0.0,0.0,-215.0,6,51.0,0.0,3.43,0.0,0.0,0.0,0,,,100,100,0,1,0,0,0,0,0,,,,,0.0,0.0,0
88,51.519508,5.857982,5.1,5.6,0.0,0.35,5.2,5.2,3.8,0.35,8775,2020-09-29 12:11:05,2020-09-29 14:11:05.423,16,0,0,12.289,51.519506,5.857977,0.0,0.0,0.0,-2.2,-2.9,-21.5,0,1,0,98,100,-7176,3651,12289,2941.5,8,GPS,1,0,0,0,0,0,0,1601381465422,4095,4092,4098,0,0,0,13,,,,,,,0,0,0,22.0,-29.0,-215.0,0.0,0.0,-215.0,6,51.0,0.0,3.46,0.0,0.0,0.0,0,,,100,100,0,1,0,0,0,0,0,,,,,0.0,0.0,0
89,51.519508,5.857982,5.1,5.6,0.0,0.35,5.2,5.2,3.8,0.35,8873,2020-09-29 12:11:05,2020-09-29 14:11:05.520,16,0,0,12.289,51.519506,5.857977,0.0,0.0,0.0,-2.1,-2.9,-21.5,0,1,0,98,100,-7176,3651,12289,2941.5,8,GPS,1,0,0,0,0,0,0,1601381465520,4095,4092,4098,0,0,0,13,,,,,,,0,0,0,21.0,-29.0,-215.0,0.0,0.0,-215.0,6,51.0,0.0,3.47,0.0,0.0,0.0,0,,,100,100,0,1,0,0,0,0,0,,,,,0.0,0.0,0
90,51.519508,5.857982,5.1,5.6,0.0,0.35,5.2,5.2,3.8,0.35,8987,2020-09-29 12:11:05,2020-09-29 14:11:05.634,16,0,0,12.289,51.519506,5.857977,0.0,0.0,0.0,-2.0,-2.8,-21.5,0,1,0,98,100,-7176,3651,12289,2941.5,8,GPS,1,0,0,0,0,0,0,1601381465634,4095,4092,4098,0,0,0,13,,,,,,,0,0,0,20.0,-28.0,-215.0,0.0,0.0,-215.0,6,51.0,0.0,3.51,0.0,0.0,0.0,0,,,100,100,0,1,0,0,0,0,0,,,,,0.0,0.0,0
91,51.519508,5.857982,5.1,5.6,0.0,0.35,5.2,5.2,3.8,0.35,9089,2020-09-29 12:11:05,2020-09-29 14:11:05.736,16,0,0,12.289,51.519506,5.857977,0.0,0.0,0.0,-2.0,-2.7,-21.5,0,1,0,98,100,-7176,3651,12289,2941.5,8,GPS,1,0,0,0,0,0,0,1601381465736,4095,4092,4098,0,0,0,13,,,,,,,0,0,0,20.0,-27.0,-215.0,0.0,0.0,-215.0,6,51.0,0.0,3.53,0.0,0.0,0.0,0,,,100,100,0,1,0,0,0,0,0,,,,,0.0,0.0,0
92,51.519508,5.857982,5.1,5.6,0.0,0.36,5.2,5.2,3.8,0.36,9173,2020-09-29 12:11:05,2020-09-29 14:11:05.820,16,0,0,12.289,51.519506,5.857977,0.0,0.0,0.0,-2.0,-2.6,-21.5,0,1,0,98,100,-7176,3651,12289,2941.5,8,GPS,1,0,0,0,0,0,0,1601381465820,4095,4092,4098,0,0,0,13,,,,,,,0,0,0,20.0,-26.0,-215.0,0.0,0.0,-215.0,6,51.0,0.0,3.56,0.0,0.0,0.0,0,,,100,100,0,1,0,0,0,0,0,,,,,0.0,0.0,0
93,51.519508,5.857982,5.1,5.6,0.0,0.36,5.2,5.2,3.8,0.36,9286,2020-09-29 12:11:05,2020-09-29 14:11:05.934,16,0,0,12.289,51.519506,5.857977,0.0,0.0,0.0,-2.0,-2.6,-21.4,0,1,0,98,100,-7176,3651,12289,2941.5,8,GPS,1,0,0,0,0,0,0,1601381465933,4095,4092,4098,0,0,0,13,,,,,,,0,0,0,20.0,-26.0,-214.0,0.0,0.0,-215.0,6,51.0,0.0,3.58,0.0,0.0,0.0,0,,,100,100,0,1,0,0,0,0,0,,,,,0.0,0.0,0
94,51.519508,5.857982,5.1,5.6,0.0,0.36,5.2,5.2,3.8,0.36,9386,2020-09-29 12:11:06,2020-09-29 14:11:06.033,16,0,0,12.289,51.519506,5.857977,0.0,0.0,0.0,-2.1,-2.5,-21.4,0,1,0,98,100,-7176,3651,12289,2941.5,8,GPS,1,0,0,0,0,0,0,1601381466033,4095,4092,4098,0,0,0,13,,,,,,,0,0,0,21.0,-25.0,-214.0,0.0,0.0,-215.0,6,51.0,0.0,3.59,0.0,0.0,0.0,0,,,100,100,0,1,0,0,0,0,0,,,,,0.0,0.0,0
95,51.519508,5.857982,5.1,5.6,0.0,0.36,5.2,5.2,3.8,0.36,9470,2020-09-29 12:11:06,2020-09-29 14:11:06.118,16,0,0,12.289,51.519506,5.857977,0.0,0.0,0.0,-2.2,-2.6,-21.3,0,1,0,98,100,-7176,3651,12289,2941.5,8,GPS,1,0,0,0,0,0,0,1601381466117,4095,4092,4098,0,0,0,13,,,,,,,0,0,0,22.0,-26.0,-213.0,0.0,0.0,-215.0,6,51.0,0.0,3.59,0.0,0.0,0.0,0,,,100,100,0,1,0,0,0,0,0,,,,,0.0,0.0,0
96,51.519508,5.857982,5.1,5.6,0.0,0.36,5.2,5.2,3.8,0.36,9570,2020-09-29 12:11:06,2020-09-29 14:11:06.217,16,0,0,12.289,51.519506,5.857977,0.0,0.0,0.0,-2.2,-2.4,-21.3,0,1,0,98,100,-7176,3651,12289,2941.5,8,GPS,1,0,0,0,0,0,0,1601381466217,4095,4092,4098,0,0,0,13,,,,,,,0,0,0,22.0,-24.0,-213.0,0.0,0.0,-215.0,6,51.0,0.0,3.6,0.0,0.0,0.0,0,,,100,100,0,1,0,0,0,0,0,,,,,0.0,0.0,0
97,51.519508,5.857982,5.1,5.6,0.0,0.36,5.2,5.2,3.8,0.36,9685,2020-09-29 12:11:06,2020-09-29 14:11:06.333,16,0,0,12.289,51.519506,5.857977,0.0,0.0,0.0,-2.0,-2.2,-21.3,0,1,0,98,100,-7176,3651,12289,2941.5,8,GPS,1,0,0,0,0,0,0,1601381466332,4095,4092,4098,0,0,0,13,,,,,,,0,0,0,20.0,-22.0,-213.0,0.0,0.0,-215.0,6,51.0,0.0,3.6,0.0,0.0,0.0,0,,,100,100,0,1,0,0,0,0,0,,,,,0.0,0.0,0
98,51.519508,5.857982,5.1,5.6,0.0,0.36,5.2,5.2,3.8,0.36,9782,2020-09-29 12:11:06,2020-09-29 14:11:06.429,16,0,0,12.289,51.519506,5.857977,0.0,0.0,0.0,-1.9,-2.2,-21.3,0,1,0,98,100,-7176,3651,12289,2941.5,8,GPS,1,0,0,0,0,0,0,1601381466429,4095,4092,4098,0,0,0,13,,,,,,,0,0,0,19.0,-22.0,-213.0,0.0,0.0,-215.0,6,51.0,0.0,3.63,0.0,0.0,0.0,0,,,100,100,0,1,0,0,0,0,0,,,,,0.0,0.0,0
99,51.519508,5.857982,5.1,5.6,0.0,0.37,5.2,5.2,3.8,0.37,9884,2020-09-29 12:11:06,2020-09-29 14:11:06.532,16,0,0,12.289,51.519506,5.857977,0.0,0.0,0.0,-1.8,-2.2,-21.4,0,1,0,98,100,-7176,3651,12289,2941.5,8,GPS,1,0,0,0,0,0,0,1601381466531,4095,4092,4098,0,0,0,13,,,,,,,0,0,0,18.0,-22.0,-214.0,0.0,0.0,-215.0,6,51.0,0.0,3.66,0.0,0.0,0.0,0,,,100,100,0,1,0,0,0,0,0,,,,,0.0,0.0,0
100,51.519508,5.857982,5.1,5.6,0.0,0.37,5.2,5.2,3.8,0.37,9986,2020-09-29 12:11:06,2020-09-29 14:11:06.634,16,0,0,12.289,51.519506,5.857977,0.0,0.0,0.0,-1.8,-2.4,-21.5,0,1,0,98,100,-7176,3651,12289,2941.5,8,GPS,1,0,0,0,0,0,0,1601381466633,4095,4092,4098,0,0,0,13,,,,,,,0,0,0,18.0,-24.0,-215.0,0.0,0.0,-215.0,6,51.0,0.0,3.69,0.0,0.0,0.0,0,,,100,100,0,1,0,0,0,0,0,,,,,0.0,0.0,0
101,51.519508,5.857982,5.1,5.6,0.0,0.37,5.2,5.2,3.8,0.37,10070,2020-09-29 12:11:06,2020-09-29 14:11:06.718,16,0,0,12.289,51.519506,5.857977,0.0,0.0,0.0,-1.6,-2.6,-21.6,0,1,0,98,100,-7176,3651,12289,2941.5,8,GPS,1,0,0,0,0,0,0,1601381466717,4095,4092,4098,0,0,0,13,,,,,,,0,0,0,16.0,-26.0,-216.0,0.0,0.0,-215.0,6,51.0,0.0,3.72,0.0,0.0,0.0,0,,,100,100,0,1,0,0,0,0,0,,,,,0.0,0.0,0
102,51.519508,5.857982,5.1,5.6,0.0,0.37,5.2,5.2,3.8,0.37,10187,2020-09-29 12:11:06,2020-09-29 14:11:06.835,16,0,0,12.289,51.519506,5.857977,0.0,0.0,0.0,-1.7,-2.7,-21.7,0,1,0,98,100,-7176,3651,12289,2941.5,8,GPS,1,0,0,0,0,0,0,1601381466834,4095,4092,4098,0,0,0,13,,,,,,,0,0,0,17.0,-27.0,-217.0,0.0,0.0,-215.0,6,51.0,0.0,3.74,0.0,0.0,0.0,0,,,100,100,0,1,0,0,0,0,0,,,,,0.0,0.0,0
103,51.519508,5.857982,5.1,5.6,0.0,0.37,5.2,5.2,3.8,0.37,10291,2020-09-29 12:11:06,2020-09-29 14:11:06.939,16,0,0,12.289,51.519506,5.857977,0.0,0.0,0.0,-1.9,-2.5,-21.7,0,1,0,98,100,-7176,3651,12289,2941.5,8,GPS,1,0,0,0,0,0,0,1601381466938,4095,4092,4098,0,0,0,13,,,,,,,0,0,0,19.0,-25.0,-217.0,0.0,0.0,-215.0,6,51.0,0.0,3.74,0.0,0.0,0.0,0,,,100,100,0,1,0,0,0,0,0,,,,,0.0,0.0,0
104,51.519508,5.857982,5.1,5.6,0.0,0.38,5.2,5.2,3.8,0.38,10369,2020-09-29 12:11:07,2020-09-29 14:11:07.017,16,0,0,12.289,51.519506,5.857977,0.0,0.0,0.0,-2.0,-2.2,-21.6,0,1,0,98,100,-7176,3651,12289,2941.5,8,GPS,1,0,0,0,0,0,0,1601381467016,4095,4092,4098,0,0,0,13,,,,,,,0,0,0,20.0,-22.0,-216.0,0.0,0.0,-215.0,6,51.0,0.0,3.77,0.0,0.0,0.0,0,,,100,100,0,1,0,0,0,0,0,,,,,0.0,0.0,0
105,51.519508,5.857982,5.1,5.6,0.0,0.38,5.2,5.2,3.8,0.38,10464,2020-09-29 12:11:07,2020-09-29 14:11:07.111,16,0,0,12.289,51.519506,5.857977,0.0,0.0,0.0,-2.2,-2.0,-21.6,0,1,0,98,100,-7176,3651,12289,2941.5,8,GPS,1,0,0,0,0,0,0,1601381467111,4095,4092,4098,0,0,0,13,,,,,,,0,0,0,22.0,-20.0,-216.0,0.0,0.0,-215.0,6,51.0,0.0,3.79,0.0,0.0,0.0,0,,,100,100,0,1,0,0,0,0,0,,,,,0.0,0.0,0
106,51.519508,5.857982,5.1,5.6,0.0,0.38,5.2,5.2,3.8,0.38,10577,2020-09-29 12:11:07,2020-09-29 14:11:07.225,16,0,0,12.437,51.519506,5.857977,0.0,0.0,0.0,-2.4,-1.8,-21.5,0,1,0,98,100,-7082,3647,12437,2941.5,8,GPS,1,0,0,0,0,0,0,1601381467224,4095,4092,4098,0,0,0,13,,,,,,,0,0,0,24.0,-18.0,-215.0,0.0,0.0,-215.0,6,51.0,0.0,3.79,0.0,0.0,0.0,0,,,100,100,0,1,0,0,0,0,0,,,,,0.0,0.0,0
107,51.519509,5.857982,5.1,5.6,0.0,0.38,5.2,5.2,3.8,0.38,10670,2020-09-29 12:11:07,2020-09-29 14:11:07.318,16,0,0,12.437,51.519506,5.857977,0.0,0.0,0.0,-2.5,-2.0,-21.5,0,1,0,98,100,-7082,3647,12437,2941.5,8,GPS,1,0,0,0,0,0,0,1601381467317,4095,4092,4098,0,0,0,13,,,,,,,0,0,0,25.0,-20.0,-215.0,0.0,0.0,-215.0,6,51.0,0.0,3.8,0.0,0.0,0.0,0,,,100,100,0,1,0,0,0,0,0,,,,,0.0,0.0,0
108,51.519509,5.857982,5.1,5.6,0.0,0.38,5.2,5.2,3.8,0.38,10784,2020-09-29 12:11:07,2020-09-29 14:11:07.431,16,0,0,12.437,51.519506,5.857977,0.0,0.0,0.0,-2.3,-2.1,-21.6,0,1,0,98,100,-7082,3647,12437,2941.5,8,GPS,1,0,0,0,0,0,0,1601381467431,4095,4092,4098,0,0,0,13,,,,,,,0,0,0,23.0,-21.0,-216.0,0.0,0.0,-215.0,6,51.0,0.0,3.84,0.0,0.0,0.0,0,,,100,100,0,1,0,0,0,0,0,,,,,0.0,0.0,0
109,51.519509,5.857982,5.1,5.6,0.0,0.39,5.2,5.2,3.8,0.39,10886,2020-09-29 12:11:07,2020-09-29 14:11:07.534,16,0,0,12.437,51.519506,5.857977,0.0,0.0,0.0,-2.0,-2.4,-21.7,0,1,0,98,100,-7082,3647,12437,2941.5,8,GPS,1,0,0,0,0,0,0,1601381467533,4095,4092,4098,0,0,0,13,,,,,,,0,0,0,20.0,-24.0,-217.0,0.0,0.0,-215.0,6,51.0,0.0,3.88,0.0,0.0,0.0,0,,,100,100,0,1,0,0,0,0,0,,,,,0.0,0.0,0
110,51.519509,5.857982,5.1,5.6,0.0,0.39,5.2,5.2,3.8,0.39,11004,2020-09-29 12:11:07,2020-09-29 14:11:07.652,16,0,0,12.437,51.519506,5.857977,0.0,0.0,0.0,-1.8,-2.5,-21.6,0,1,0,98,100,-7082,3647,12437,2941.5,8,GPS,1,0,0,0,0,0,0,1601381467651,4095,4092,4098,0,0,0,13,,,,,,,0,0,0,18.0,-25.0,-216.0,0.0,0.0,-215.0,6,51.0,0.0,3.94,0.0,0.0,0.0,0,,,100,100,0,1,0,0,0,0,0,,,,,0.0,0.0,0
111,51.519509,5.857982,5.1,5.6,0.0,0.4,5.2,5.2,3.8,0.4,11070,2020-09-29 12:11:07,2020-09-29 14:11:07.718,16,0,0,12.437,51.519506,5.857977,0.0,0.0,0.0,-1.8,-2.5,-21.5,0,1,0,98,100,-7082,3647,12437,2941.5,8,GPS,1,0,0,0,0,0,0,1601381467717,4095,4092,4098,0,0,0,13,,,,,,,0,0,0,18.0,-25.0,-215.0,0.0,0.0,-215.0,6,51.0,0.0,3.99,0.0,0.0,0.0,0,,,100,100,0,1,0,0,0,0,0,,,,,0.0,0.0,0
112,51.519509,5.857982,5.1,5.6,0.0,0.41,5.2,5.2,3.8,0.41,11171,2020-09-29 12:11:07,2020-09-29 14:11:07.818,16,0,0,12.437,51.519506,5.857977,0.0,0.0,0.0,-1.9,-2.4,-21.5,0,1,0,98,100,-7082,3647,12437,2941.5,8,GPS,1,0,0,0,0,0,0,1601381467818,4095,4092,4098,0,0,0,13,,,,,,,0,0,0,19.0,-24.0,-215.0,0.0,0.0,-215.0,6,51.0,0.0,4.07,0.0,0.0,0.0,0,,,100,100,0,1,0,0,0,0,0,,,,,0.0,0.0,0
113,51.519509,5.857982,5.1,5.6,0.0,0.41,5.2,5.2,3.8,0.41,11271,2020-09-29 12:11:07,2020-09-29 14:11:07.918,16,0,0,12.437,51.519506,5.857977,0.0,0.0,0.0,-1.8,-2.3,-21.5,0,1,0,98,100,-7082,3647,12437,2941.5,8,GPS,1,0,0,0,0,0,0,1601381467918,4095,4092,4098,0,0,0,13,,,,,,,0,0,0,18.0,-23.0,-215.0,0.0,0.0,-215.0,6,51.0,0.0,4.15,0.0,0.0,0.0,0,,,100,100,0,1,0,0,0,0,0,,,,,0.0,0.0,0
114,51.519509,5.857982,5.1,5.6,0.0,0.42,5.2,5.2,3.8,0.42,11370,2020-09-29 12:11:08,2020-09-29 14:11:08.018,16,0,0,12.437,51.519506,5.857977,0.0,0.0,0.0,-1.8,-2.5,-21.5,0,1,0,98,100,-7082,3647,12437,2941.5,8,GPS,1,0,0,0,0,0,0,1601381468017,4095,4092,4098,0,0,0,13,,,,,,,0,0,0,18.0,-25.0,-215.0,0.0,0.0,-215.0,6,51.0,0.0,4.2,0.0,0.0,0.0,0,,,100,100,0,1,0,0,0,0,0,,,,,0.0,0.0,0
115,51.519509,5.857982,5.1,5.5,0.0,0.42,5.2,5.2,3.8,0.42,11488,2020-09-29 12:11:08,2020-09-29 14:11:08.136,16,0,0,12.437,51.519506,5.857977,0.0,0.0,0.0,-2.0,-2.5,-21.5,0,1,0,98,100,-7082,3647,12437,2941.5,8,GPS,1,0,0,0,0,0,0,1601381468135,4095,4092,4098,0,0,0,13,,,,,,,0,0,0,20.0,-25.0,-215.0,0.0,0.0,-215.0,6,51.0,0.0,4.24,0.0,0.0,0.0,0,,,100,100,0,1,0,0,0,0,0,,,,,0.0,0.0,0
116,51.519509,5.857982,5.1,5.5,0.0,0.43,5.2,5.2,3.8,0.43,11603,2020-09-29 12:11:08,2020-09-29 14:11:08.251,16,0,0,12.437,51.519506,5.857977,0.0,0.0,0.0,-2.1,-2.7,-21.5,0,1,0,98,100,-7082,3647,12437,2941.5,8,GPS,1,0,0,0,0,0,0,1601381468250,4095,4092,4098,0,0,0,13,,,,,,,0,0,0,21.0,-27.0,-215.0,0.0,0.0,-215.0,6,51.0,0.0,4.29,0.0,0.0,0.0,0,,,100,100,0,1,0,0,0,0,0,,,,,0.0,0.0,0
117,51.519509,5.857982,5.1,5.5,0.0,0.43,5.2,5.2,3.8,0.43,11687,2020-09-29 12:11:08,2020-09-29 14:11:08.334,16,0,0,12.437,51.519506,5.857977,0.0,0.0,0.0,-2.3,-2.6,-21.5,0,1,0,98,100,-7082,3647,12437,2941.5,8,GPS,1,0,0,0,0,0,0,1601381468334,4095,4092,4098,0,0,0,13,,,,,,,0,0,0,23.0,-26.0,-215.0,0.0,0.0,-215.0,6,51.0,0.0,4.34,0.0,0.0,0.0,0,,,100,100,0,1,0,0,0,0,0,,,,,0.0,0.0,0
118,51.519509,5.857982,5.1,5.5,0.0,0.44,5.2,5.2,3.8,0.44,11803,2020-09-29 12:11:08,2020-09-29 14:11:08.451,16,0,0,12.437,51.519506,5.857977,0.0,0.0,0.0,-2.2,-2.1,-21.6,0,1,0,98,100,-7082,3647,12437,2941.5,8,GPS,1,0,0,0,0,0,0,1601381468450,4095,4092,4098,0,0,0,13,,,,,,,0,0,0,22.0,-21.0,-216.0,0.0,0.0,-215.0,6,51.0,0.0,4.38,0.0,0.0,0.0,0,,,100,100,0,1,0,0,0,0,0,,,,,0.0,0.0,0
119,51.519509,5.857982,5.1,5.5,0.0,0.44,5.2,5.2,3.8,0.44,11884,2020-09-29 12:11:08,2020-09-29 14:11:08.531,16,0,0,12.437,51.519506,5.857977,0.0,0.0,0.0,-2.4,-2.0,-21.6,0,1,0,98,100,-7082,3647,12437,2941.5,8,GPS,1,0,0,0,0,0,0,1601381468531,4095,4092,4098,0,0,0,13,,,,,,,0,0,0,24.0,-20.0,-216.0,0.0,0.0,-215.0,6,51.0,0.0,4.41,0.0,0.0,0.0,0,,,100,100,0,1,0,0,0,0,0,,,,,0.0,0.0,0
120,51.519509,5.857982,5.1,5.5,0.0,0.44,5.2,5.2,3.8,0.44,11967,2020-09-29 12:11:08,2020-09-29 14:11:08.615,16,0,0,12.437,51.519506,5.857977,0.0,0.0,0.0,-2.4,-1.9,-21.6,0,1,0,98,100,-7082,3647,12437,2941.5,8,GPS,1,0,0,0,0,0,0,1601381468614,4095,4092,4098,0,0,0,13,,,,,,,0,0,0,24.0,-19.0,-216.0,0.0,0.0,-215.0,6,51.0,0.0,4.44,0.0,0.0,0.0,0,,,100,100,0,1,0,0,0,0,0,,,,,0.0,0.0,0
121,51.519509,5.857982,5.1,5.5,0.0,0.45,5.2,5.2,3.8,0.45,12087,2020-09-29 12:11:08,2020-09-29 14:11:08.734,16,0,0,12.437,51.519506,5.857977,0.0,0.0,0.0,-2.7,-2.0,-21.5,0,1,0,98,100,-7082,3647,12437,2941.5,8,GPS,1,0,0,0,0,0,0,1601381468734,4095,4092,4098,0,0,0,13,,,,,,,0,0,0,27.0,-20.0,-215.0,0.0,0.0,-215.0,6,51.0,0.0,4.47,0.0,0.0,0.0,0,,,100,100,0,1,0,0,0,0,0,,,,,0.0,0.0,0
122,51.519509,5.857982,5.1,5.5,0.0,0.46,5.2,5.2,3.8,0.46,12193,2020-09-29 12:11:08,2020-09-29 14:11:08.841,16,0,0,12.437,51.519506,5.857977,0.0,0.0,0.0,-2.8,-2.5,-21.5,0,1,0,98,100,-7082,3647,12437,2941.5,8,GPS,1,0,0,0,0,0,0,1601381468840,4095,4092,4098,0,0,0,13,,,,,,,0,0,0,28.0,-25.0,-215.0,0.0,0.0,-215.0,6,51.0,0.0,4.55,0.0,0.0,0.0,0,,,100,100,0,1,0,0,0,0,0,,,,,0.0,0.0,0
123,51.51951,5.857982,5.1,5.5,0.0,0.46,5.2,5.2,3.8,0.46,12270,2020-09-29 12:11:08,2020-09-29 14:11:08.917,16,0,0,12.437,51.519506,5.857977,0.0,0.0,0.0,-2.4,-2.5,-21.4,0,1,0,98,100,-7082,3647,12437,2941.5,8,GPS,1,0,0,0,0,0,0,1601381468917,4095,4092,4098,0,0,0,13,,,,,,,0,0,0,24.0,-25.0,-214.0,0.0,0.0,-215.0,6,51.0,0.0,4.64,0.0,0.0,0.0,0,,,100,100,0,1,0,0,0,0,0,,,,,0.0,0.0,0
124,51.51951,5.857982,5.1,5.5,0.0,0.47,5.2,5.2,3.8,0.47,12371,2020-09-29 12:11:09,2020-09-29 14:11:09.019,16,0,0,12.437,51.519506,5.857977,0.0,0.0,0.0,-2.1,-2.2,-21.4,0,1,0,98,100,-7082,3647,12437,2941.5,8,GPS,1,0,0,0,0,0,0,1601381469018,4095,4092,4098,0,0,0,13,,,,,,,0,0,0,21.0,-22.0,-214.0,0.0,0.0,-215.0,6,51.0,0.0,4.75,0.0,0.0,0.0,0,,,100,100,0,1,0,0,0,0,0,,,,,0.0,0.0,0
125,51.51951,5.857982,5.1,5.5,0.0,0.49,5.2,5.2,3.8,0.49,12488,2020-09-29 12:11:09,2020-09-29 14:11:09.136,16,0,0,12.437,51.519506,5.857977,0.0,0.0,0.0,-2.1,-2.5,-21.4,0,1,0,98,100,-7082,3647,12437,2941.5,8,GPS,1,0,0,0,0,0,0,1601381469135,4095,4092,4098,0,0,0,13,,,,,,,0,0,0,21.0,-25.0,-214.0,0.0,0.0,-215.0,6,51.0,0.0,4.86,0.0,0.0,0.0,0,,,100,100,0,1,0,0,0,0,0,,,,,0.0,0.0,0
126,51.51951,5.857982,5.1,5.5,0.0,0.5,5.2,5.2,3.8,0.5,12570,2020-09-29 12:11:09,2020-09-29 14:11:09.217,16,0,0,12.437,51.519506,5.857977,0.0,0.0,0.0,-2.2,-3.0,-21.4,0,1,0,98,100,-7082,3647,12437,2941.5,8,GPS,1,0,0,0,0,0,0,1601381469217,4095,4092,4098,0,0,0,13,,,,,,,0,0,0,22.0,-30.0,-214.0,0.0,0.0,-215.0,6,51.0,0.0,5.01,0.0,0.0,0.0,0,,,100,100,0,1,0,0,0,0,0,,,,,0.0,0.0,0
127,51.51951,5.857982,5.1,5.5,0.0,0.51,5.2,5.2,3.8,0.51,12689,2020-09-29 12:11:09,2020-09-29 14:11:09.336,16,0,0,12.247,51.519506,5.857977,0.0,0.0,0.0,-2.0,-3.1,-21.5,0,1,0,98,100,-6900,3641,12247,2941.5,8,GPS,1,0,0,0,0,0,0,1601381469336,4095,4092,4098,0,0,0,13,,,,,,,0,0,0,20.0,-31.0,-215.0,0.0,0.0,-215.0,6,51.0,0.0,5.14,0.0,0.0,0.0,0,,,100,100,0,1,0,0,0,0,0,,,,,0.0,0.0,0
128,51.51951,5.857982,5.1,5.5,0.0,0.53,5.2,5.2,3.8,0.53,12789,2020-09-29 12:11:09,2020-09-29 14:11:09.437,16,0,0,12.247,51.519506,5.857977,0.0,0.0,0.0,-2.3,-3.5,-21.3,0,1,0,98,100,-6900,3641,12247,2941.5,8,GPS,1,0,0,0,0,0,0,1601381469436,4095,4092,4098,0,0,0,13,,,,,,,0,0,0,23.0,-35.0,-213.0,0.0,0.0,-215.0,6,51.0,0.0,5.29,0.0,0.0,0.0,0,,,100,100,0,1,0,0,0,0,0,,,,,0.0,0.0,0
129,51.51951,5.857982,5.1,5.5,0.0,0.54,5.2,5.2,3.8,0.54,12872,2020-09-29 12:11:09,2020-09-29 14:11:09.520,16,0,0,12.247,51.519506,5.857977,0.0,0.0,0.0,-2.2,-3.8,-21.3,0,1,0,98,100,-6900,3641,12247,2941.5,8,GPS,1,0,0,0,0,0,0,1601381469519,4095,4092,4098,0,0,0,13,,,,,,,0,0,0,22.0,-38.0,-213.0,0.0,0.0,-215.0,6,51.0,0.0,5.43,0.0,0.0,0.0,0,,,100,100,0,1,0,0,0,0,0,,,,,0.0,0.0,0
130,51.51951,5.857982,5.1,5.5,0.0,0.56,5.2,5.2,3.8,0.56,12987,2020-09-29 12:11:09,2020-09-29 14:11:09.635,16,0,0,12.247,51.519506,5.857977,0.0,0.0,0.0,-2.1,-4.1,-21.3,0,1,0,98,100,-6900,3641,12247,2941.5,8,GPS,1,0,0,0,0,0,0,1601381469634,4095,4092,4098,0,0,0,13,,,,,,,0,0,0,21.0,-41.0,-213.0,0.0,0.0,-215.0,6,51.0,0.0,5.62,0.0,0.0,0.0,0,,,100,100,0,1,0,0,0,0,0,,,,,0.0,0.0,0
131,51.51951,5.857983,5.1,5.5,0.0,0.58,5.2,5.2,3.8,0.58,13074,2020-09-29 12:11:09,2020-09-29 14:11:09.722,16,0,0,12.247,51.519506,5.857977,0.0,0.0,0.0,-1.8,-4.3,-21.4,0,1,0,98,100,-6900,3641,12247,2941.5,8,GPS,1,0,0,0,0,0,0,1601381469721,4095,4092,4098,0,0,0,13,,,,,,,0,0,0,18.0,-43.0,-214.0,0.0,0.0,-215.0,6,51.0,0.0,5.78,0.0,0.0,0.0,0,,,100,100,0,1,0,0,0,0,0,,,,,0.0,0.0,0
132,51.519511,5.857983,5.1,5.5,0.0,0.59,5.2,5.2,3.8,0.59,13166,2020-09-29 12:11:09,2020-09-29 14:11:09.814,16,0,0,12.247,51.519506,5.857977,0.0,0.0,0.0,-1.4,-4.2,-21.4,0,1,0,98,100,-6900,3641,12247,2941.5,8,GPS,1,0,0,0,0,0,0,1601381469813,4095,4092,4098,0,0,0,13,,,,,,,0,0,0,14.0,-42.0,-214.0,0.0,0.0,-215.0,6,51.0,0.0,5.94,0.0,0.0,0.0,0,,,100,100,0,1,0,0,0,0,0,,,,,0.0,0.0,0
133,51.519511,5.857983,5.1,5.5,0.0,0.61,5.2,5.2,3.8,0.61,13274,2020-09-29 12:11:09,2020-09-29 14:11:09.921,16,0,0,12.247,51.519506,5.857977,0.0,0.0,0.0,-1.2,-4.0,-21.3,0,1,0,98,100,-6900,3641,12247,2941.5,8,GPS,1,0,0,0,0,0,0,1601381469921,4095,4092,4098,0,0,0,13,,,,,,,0,0,0,12.0,-40.0,-213.0,0.0,0.0,-215.0,6,51.0,0.0,6.06,0.0,0.0,0.0,0,,,100,100,0,1,0,0,0,0,0,,,,,0.0,0.0,0
134,51.519511,5.857983,5.1,5.5,0.0,0.62,5.2,5.2,3.8,0.62,13371,2020-09-29 12:11:10,2020-09-29 14:11:10.019,16,0,0,12.247,51.519506,5.857977,0.0,0.0,0.0,-1.5,-3.9,-21.3,0,1,0,98,100,-6900,3641,12247,2941.5,8,GPS,1,0,0,0,0,0,0,1601381470018,4095,4092,4098,0,0,0,13,,,,,,,0,0,0,15.0,-39.0,-213.0,0.0,0.0,-215.0,6,51.0,0.0,6.16,0.0,0.0,0.0,0,,,100,100,0,1,0,0,0,0,0,,,,,0.0,0.0,0
135,51.519511,5.857983,5.1,5.5,0.0,0.62,5.2,5.2,3.8,0.62,13474,2020-09-29 12:11:10,2020-09-29 14:11:10.121,16,0,0,12.247,51.519506,5.857977,0.0,0.0,0.0,-1.3,-3.6,-21.2,0,1,0,98,100,-6900,3641,12247,2941.5,8,GPS,1,0,0,0,0,0,0,1601381470121,4095,4092,4098,0,0,0,13,,,,,,,0,0,0,13.0,-36.0,-212.0,0.0,0.0,-215.0,6,51.0,0.0,6.25,0.0,0.0,0.0,0,,,100,100,0,1,0,0,0,0,0,,,,,0.0,0.0,0
136,51.519511,5.857983,5.1,5.5,0.0,0.63,5.2,5.2,3.8,0.63,13566,2020-09-29 12:11:10,2020-09-29 14:11:10.214,16,0,0,12.247,51.519506,5.857977,0.0,0.0,0.0,-1.1,-3.4,-21.2,0,1,0,98,100,-6900,3641,12247,2941.5,8,GPS,1,0,0,0,0,0,0,1601381470213,4095,4092,4098,0,0,0,13,,,,,,,0,0,0,11.0,-34.0,-212.0,0.0,0.0,-215.0,6,51.0,0.0,6.3,0.0,0.0,0.0,0,,,100,100,0,1,0,0,0,0,0,,,,,0.0,0.0,0
137,51.519511,5.857982,5.1,5.5,0.0,0.63,5.2,5.2,3.8,0.63,13672,2020-09-29 12:11:10,2020-09-29 14:11:10.320,16,0,0,12.247,51.519506,5.857977,0.0,0.0,0.0,-1.1,-3.4,-21.2,0,1,0,98,100,-6900,3641,12247,2941.5,8,GPS,1,0,0,0,0,0,0,1601381470319,4095,4092,4098,0,0,0,13,,,,,,,0,0,0,11.0,-34.0,-212.0,0.0,0.0,-215.0,6,51.0,0.0,6.34,0.0,0.0,0.0,0,,,100,100,0,1,0,0,0,0,0,,,,,0.0,0.0,0
138,51.519511,5.857982,5.1,5.5,0.0,0.64,5.2,5.2,3.8,0.64,13790,2020-09-29 12:11:10,2020-09-29 14:11:10.438,16,0,0,12.247,51.519506,5.857977,0.0,0.0,0.0,-1.2,-3.1,-21.2,0,1,0,98,100,-6900,3641,12247,2941.5,8,GPS,1,0,0,0,0,0,0,1601381470437,4095,4092,4098,0,0,0,13,,,,,,,0,0,0,12.0,-31.0,-212.0,0.0,0.0,-215.0,6,51.0,0.0,6.36,0.0,0.0,0.0,0,,,100,100,0,1,0,0,0,0,0,,,,,0.0,0.0,0
139,51.519511,5.857982,5.1,5.5,0.0,0.64,5.2,5.2,3.8,0.64,13871,2020-09-29 12:11:10,2020-09-29 14:11:10.518,16,0,0,12.247,51.519506,5.857977,0.0,0.0,0.0,-1.0,-2.9,-21.2,0,1,0,98,100,-6900,3641,12247,2941.5,8,GPS,1,0,0,0,0,0,0,1601381470518,4095,4092,4098,0,0,0,13,,,,,,,0,0,0,10.0,-29.0,-212.0,0.0,0.0,-215.0,6,51.0,0.0,6.38,0.0,0.0,0.0,0,,,100,100,0,1,0,0,0,0,0,,,,,0.0,0.0,0
140,51.519511,5.857982,5.1,5.5,0.0,0.64,5.2,5.2,3.8,0.64,14006,2020-09-29 12:11:10,2020-09-29 14:11:10.653,16,0,0,12.247,51.519506,5.857977,0.0,0.0,0.0,-1.0,-2.8,-21.3,0,1,0,98,100,-6900,3641,12247,2941.5,8,GPS,1,0,0,0,0,0,0,1601381470653,4095,4092,4098,0,0,0,13,,,,,,,0,0,0,10.0,-28.0,-213.0,0.0,0.0,-215.0,6,51.0,0.0,6.39,0.0,0.0,0.0,0,,,100,100,0,1,0,0,0,0,0,,,,,0.0,0.0,0
141,51.519511,5.857982,5.1,5.5,0.0,0.64,5.2,5.2,3.8,0.64,14073,2020-09-29 12:11:10,2020-09-29 14:11:10.721,16,0,0,12.247,51.519506,5.857977,0.0,0.0,0.0,-1.0,-3.1,-21.3,0,1,0,98,100,-6900,3641,12247,2941.5,8,GPS,1,0,0,0,0,0,0,1601381470720,4095,4092,4098,0,0,0,13,,,,,,,0,0,0,10.0,-31.0,-213.0,0.0,0.0,-215.0,6,51.0,0.0,6.4,0.0,0.0,0.0,0,,,100,100,0,1,0,0,0,0,0,,,,,0.0,0.0,0
142,51.519511,5.857982,5.1,5.5,0.0,0.64,5.2,5.2,3.8,0.64,14189,2020-09-29 12:11:10,2020-09-29 14:11:10.836,16,0,0,12.247,51.519506,5.857977,0.0,0.0,0.0,-0.9,-2.9,-21.3,0,1,0,98,100,-6900,3641,12247,2941.5,8,GPS,1,0,0,0,0,0,0,1601381470836,4095,4092,4098,0,0,0,13,,,,,,,0,0,0,9.0,-29.0,-213.0,0.0,0.0,-215.0,6,51.0,0.0,6.44,0.0,0.0,0.0,0,,,100,100,0,1,0,0,0,0,0,,,,,0.0,0.0,0
143,51.519511,5.857982,5.1,5.5,0.0,0.65,5.2,5.2,3.8,0.65,14272,2020-09-29 12:11:10,2020-09-29 14:11:10.919,16,0,0,12.247,51.519506,5.857977,0.0,0.0,0.0,-1.1,-3.0,-21.3,0,1,0,98,100,-6900,3641,12247,2941.5,8,GPS,1,0,0,0,0,0,0,1601381470919,4095,4092,4098,0,0,0,13,,,,,,,0,0,0,11.0,-30.0,-213.0,0.0,0.0,-215.0,6,51.0,0.0,6.47,0.0,0.0,0.0,0,,,100,100,0,1,0,0,0,0,0,,,,,0.0,0.0,0
144,51.519511,5.857982,5.2,5.6,0.0,0.65,5.2,5.2,3.8,0.65,14371,2020-09-29 12:11:11,2020-09-29 14:11:11.018,16,0,0,12.247,51.519506,5.857977,0.0,0.0,0.0,-1.1,-2.9,-21.4,0,1,0,98,100,-6900,3641,12247,2941.5,8,GPS,1,0,0,0,0,0,0,1601381471018,4095,4092,4098,0,0,0,13,,,,,,,0,0,0,11.0,-29.0,-214.0,0.0,0.0,-215.0,6,52.0,0.0,6.48,0.0,0.0,0.0,0,,,100,100,0,1,0,0,0,0,0,,,,,0.0,0.0,0
145,51.519511,5.857982,5.2,5.6,0.0,0.65,5.2,5.2,3.8,0.65,14471,2020-09-29 12:11:11,2020-09-29 14:11:11.119,16,0,0,12.247,51.519506,5.857977,0.0,0.0,0.0,-1.2,-3.1,-21.3,0,1,0,98,100,-6900,3641,12247,2941.5,8,GPS,1,0,0,0,-2,0,0,1601381471118,4095,4092,4098,0,0,0,13,,,,,,,0,0,0,12.0,-31.0,-213.0,0.0,0.0,-215.0,6,52.0,0.0,6.5,0.0,0.0,0.0,0,,,100,100,0,1,0,0,0,0,0,,,,,0.0,0.0,0
146,51.519511,5.857982,5.2,5.6,0.0,0.65,5.2,5.2,3.8,0.65,14589,2020-09-29 12:11:11,2020-09-29 14:11:11.236,16,0,0,12.247,51.519506,5.857977,0.0,0.0,0.0,-1.1,-3.1,-21.2,0,1,0,98,100,-6900,3641,12247,2941.5,8,GPS,1,0,0,0,-660,0,0,1601381471236,4095,4092,4098,0,0,0,13,,,,,,,0,0,0,11.0,-31.0,-212.0,0.0,0.0,-215.0,6,52.0,0.0,6.53,0.0,0.0,0.0,0,,,100,100,0,1,0,0,0,0,0,,,,,0.0,0.0,0
147,51.519511,5.857982,5.2,5.6,0.2,0.66,5.2,5.2,3.8,0.66,14673,2020-09-29 12:11:11,2020-09-29 14:11:11.321,16,0,0,12.268,51.519506,5.857977,0.0,0.0,0.2,-1.0,-3.9,-21.2,0,1,0,98,100,-7240,3639,12268,2941.5,8,GPS,1,0,0,0,-660,0,0,1601381471320,4095,4092,4098,0,0,0,13,,,,,,,0,0,0,10.0,-39.0,-212.0,0.0,0.0,-215.0,6,52.0,2.0,6.57,0.0,0.0,2.0,0,,,100,100,0,1,0,0,0,0,0,,,,,0.0,0.0,0
148,51.519511,5.857982,5.1,5.5,0.5,0.66,5.2,5.2,3.8,0.66,14788,2020-09-29 12:11:11,2020-09-29 14:11:11.436,16,0,0,12.268,51.519506,5.857977,0.0,0.0,0.5,-0.6,-4.1,-21.3,0,1,0,98,100,-7240,3639,12268,2941.5,8,GPS,1,0,0,0,-660,0,0,1601381471435,4095,4092,4098,0,0,0,13,,,,,,,0,0,0,6.0,-41.0,-213.0,0.0,0.0,-215.0,6,51.0,5.0,6.62,0.0,0.0,5.0,0,,,100,100,0,1,0,0,0,0,0,,,,,0.0,0.0,0
149,51.519511,5.857982,5.1,5.4,0.9,0.67,5.2,5.2,3.8,0.67,14872,2020-09-29 12:11:11,2020-09-29 14:11:11.520,16,0,0,12.268,51.519506,5.857977,0.0,0.0,0.9,-0.4,-3.8,-21.2,0,1,0,98,100,-7240,3639,12268,2941.5,8,GPS,1,0,0,0,-660,0,0,1601381471519,4095,4092,4098,0,0,0,13,,,,,,,0,0,0,4.0,-38.0,-212.0,0.0,0.0,-215.0,6,51.0,9.0,6.66,0.0,0.0,9.0,0,,,100,100,0,1,0,0,0,0,0,,,,,0.0,0.0,0
150,51.519511,5.857982,4.9,5.3,1.3,0.67,5.2,5.2,3.8,0.67,14965,2020-09-29 12:11:11,2020-09-29 14:11:11.612,16,0,0,12.268,51.519506,5.857977,0.0,0.0,1.3,-0.6,-3.3,-21.2,0,1,0,98,100,-7240,3639,12268,2941.5,8,GPS,1,0,0,0,-660,0,0,1601381471612,4095,4092,4098,0,0,0,13,,,,,,,0,0,0,6.0,-33.0,-212.0,0.0,0.0,-215.0,6,49.0,13.0,6.65,0.0,0.0,13.0,0,,,100,100,0,1,0,0,0,0,0,,,,,0.0,0.0,0
151,51.519511,5.857983,4.8,5.2,1.8,0.66,5.2,5.2,3.8,0.67,15089,2020-09-29 12:11:11,2020-09-29 14:11:11.737,16,0,0,12.268,51.519506,5.857977,0.0,0.0,1.8,-0.8,-2.4,-21.2,0,1,0,98,100,-7240,3639,12268,2941.5,8,GPS,1,0,0,0,-660,0,0,1601381471736,4095,4092,4098,0,0,0,13,,,,,,,0,0,0,8.0,-24.0,-212.0,0.0,0.0,-215.0,6,48.0,18.0,6.65,0.0,0.0,18.0,0,,,100,100,0,1,0,0,0,0,0,,,,,0.0,0.0,0
152,51.519511,5.857983,4.6,5.0,2.0,0.67,5.2,5.2,3.8,0.67,15172,2020-09-29 12:11:11,2020-09-29 14:11:11.819,16,0,0,12.268,51.519506,5.857977,0.0,0.0,2.0,-1.0,-1.3,-21.1,0,1,0,98,100,-7240,3639,12268,2941.5,8,GPS,1,0,0,0,-660,0,0,1601381471819,4095,4092,4098,0,0,0,13,,,,,,,0,0,0,10.0,-13.0,-211.0,0.0,0.0,-215.0,6,46.0,20.0,6.69,0.0,0.0,20.0,0,,,100,100,0,1,0,0,0,0,0,,,,,0.0,0.0,0
153,51.519511,5.857983,4.4,4.8,2.2,0.68,5.2,5.2,3.8,0.68,15272,2020-09-29 12:11:11,2020-09-29 14:11:11.920,16,0,0,12.268,51.519506,5.857977,0.0,0.0,2.2,-1.3,-1.6,-21.2,0,1,0,98,100,-7240,3639,12268,2941.5,8,GPS,1,0,0,0,-660,0,0,1601381471919,4095,4092,4098,0,0,0,13,,,,,,,0,0,0,13.0,-16.0,-212.0,0.0,0.0,-215.0,6,44.0,22.0,6.75,0.0,0.0,22.0,0,,,100,100,0,1,0,0,0,0,0,,,,,0.0,0.0,0
154,51.519512,5.857983,4.1,4.5,2.2,0.69,5.2,5.2,3.8,0.69,15373,2020-09-29 12:11:12,2020-09-29 14:11:12.020,16,0,0,12.268,51.519506,5.857977,0.0,0.0,2.2,-0.7,-2.1,-21.1,0,1,0,98,100,-7240,3639,12268,2941.5,8,GPS,1,0,0,0,-660,0,0,1601381472020,4095,4092,4098,0,0,0,13,,,,,,,0,0,0,7.0,-21.0,-211.0,0.0,0.0,-215.0,6,41.0,22.0,6.94,0.0,0.0,22.0,0,,,100,100,0,1,0,0,0,0,0,,,,,0.0,0.0,0
155,51.519512,5.857983,3.9,4.3,2.2,0.71,5.2,5.2,3.8,0.71,15476,2020-09-29 12:11:12,2020-09-29 14:11:12.123,16,0,0,12.268,51.519506,5.857977,0.0,0.0,2.2,-1.2,-3.1,-20.9,0,1,0,98,100,-7240,3639,12268,2941.5,8,GPS,1,0,0,0,-660,0,0,1601381472123,4095,4092,4098,0,0,0,13,,,,,,,0,0,0,12.0,-31.0,-209.0,0.0,0.0,-215.0,6,39.0,22.0,7.11,0.0,0.0,22.0,0,,,100,100,0,1,0,0,0,0,0,,,,,0.0,0.0,0
