,latitude,longitude,altitude(m),ultrasonicHeight(m),speed(mps),distance(m),max_altitude(m),max_ascent(m),max_speed(mps),max_distance(m),time(millisecond),datetime(utc),datetime(local),satellites,pressure(Pa),temperature(F),voltage(v),home_latitude,home_longitude,velocityX(mps),velocityY(mps),velocityZ(mps),pitch(deg),roll(deg),yaw(deg),powerlevel,isflying,istakingphoto,remainPowerPercent,remainLifePercent,currentCurrent,currentElectricity,currentVoltage,batteryTemperature,dischargeCount,flightmode,isMotorsOn,isTakingVideo,Rc_elevator,Rc_aileron,Rc_throttle,Rc_rudder,Rc_gyro,timestamp,Battery_Cell1,Battery_Cell2,Battery_Cell3,Battery_Cell4,Battery_Cell5,Battery_Cell6,Dronetype,AppVersion,Planename,FlyControllerSerialNumber,RemoteSerialNumber,BatterySerialNumber,CENTER_BATTERY.productDate,CENTER_BATTERY.serialNo,CENTER_BATTERY.fullCapacity,CENTER_BATTERY.productDateRaw,pitchRaw,rollRaw,yawRaw,gimbalPitchRaw,gimbalRollRaw,gimbalYawRaw,flyState,altitudeRaw,speedRaw,distanceRaw,velocityXRaw,velocityYRaw,velocityZRaw,data_reuse,App_Tip,App_Warning,downlinkSignalQuality,uplinkSignalQuality,transmissionChannel,rcModeSwitch,rcHome,rcPause,rcTransform,rcJoystickMode,appMode,FlyControllerSerialNumber_legacy,RemoteSerialNumber_legacy,BatterySerialNumber_legacy,Battery2SerialNumber,frontAvoidDist,backAvoidDist,isBrakingToAvoid
0,51.519485,5.858141,0.3,0.4,0.4,0.09,0.3,0.3,0.4,0.09,0,2020-09-29 13:43:48,2020-09-29 15:43:48.525,18,0,0,16.904,51.519486,5.85814,0.0,0.0,-0.4,0.0,1.1,112.7,0,1,0,91,100,-4239,3192,16904,3031.5,11,TakeOff,1,0,0,0,0,0,0,1601387028524,4278,4271,4263,4267,0,0,27,Litchi_iOS_2.8.0,djiuser_97p9AXasssb6-Mavic2,163CG9WR0A2UQL,1DUCG9WR024G86,0P2AG9H5340597,,0,3515,0,-0.0,11.0,1127.0,1.0,0.0,1137.0,11,3.0,4.0,0.88,0.0,0.0,-4.0,0,,,100,100,0,2,0,0,0,1,0,(null),(null),(null),(null),0.0,0.0,0
1,51.519485,5.858142,0.4,0.4,0.4,0.1,0.4,0.4,0.4,0.1,98,2020-09-29 13:43:48,2020-09-29 15:43:48.623,18,0,0,16.904,51.519486,5.85814,0.0,0.0,-0.4,0.0,1.1,112.6,0,1,0,91,100,-4239,3192,16904,3031.5,11,TakeOff,1,0,0,0,0,0,0,1601387028622,4278,4271,4263,4267,0,0,27,,,,,,,0,0,0,-0.0,11.0,1126.0,1.0,0.0,1137.0,11,4.0,4.0,1.04,0.0,0.0,-4.0,0,,,100,100,0,2,0,0,0,1,0,,,,,0.0,0.0,0
2,51.519485,5.858141,0.4,0.4,0.4,0.1,0.4,0.4,0.4,0.1,198,2020-09-29 13:43:48,2020-09-29 15:43:48.723,18,0,0,16.904,51.519486,5.85814,0.0,0.0,-0.4,-0.2,1.0,112.7,0,1,0,91,100,-4239,3192,16904,3031.5,11,TakeOff,1,0,0,0,0,0,0,1601387028722,4278,4271,4263,4267,0,0,27,,,,,,,0,0,0,2.0,10.0,1127.0,1.0,0.0,1137.0,11,4.0,4.0,1.05,0.0,0.0,-4.0,0,,,100,100,0,2,0,0,0,1,0,,,,,0.0,0.0,0
3,51.519485,5.858142,0.5,0.5,0.5,0.1,0.5,0.5,0.5,0.1,299,2020-09-29 13:43:48,2020-09-29 15:43:48.823,18,0,0,16.904,51.519486,5.85814,0.0,0.0,-0.5,-0.3,0.7,112.7,0,1,0,91,100,-4239,3192,16904,3031.5,11,TakeOff,1,0,0,0,0,0,0,1601387028823,4278,4271,4263,4267,0,0,27,,,,,,,0,0,0,3.0,7.0,1127.0,1.0,0.0,1137.0,11,5.0,5.0,0.97,0.0,0.0,-5.0,0,,,100,100,0,2,0,0,0,1,0,,,,,0.0,0.0,0
4,51.519485,5.858141,0.5,0.6,0.5,0.1,0.5,0.5,0.5,0.1,414,2020-09-29 13:43:48,2020-09-29 15:43:48.939,18,0,0,16.904,51.519486,5.85814,0.0,0.0,-0.5,-0.5,0.5,112.7,0,1,0,91,100,-4239,3192,16904,3031.5,11,TakeOff,1,0,0,0,0,0,0,1601387028938,4278,4271,4263,4267,0,0,27,,,,,,,0,0,0,5.0,5.0,1127.0,1.0,0.0,1137.0,11,5.0,5.0,0.98,0.0,0.0,-5.0,0,,,100,100,0,2,0,0,0,1,0,,,,,0.0,0.0,0
5,51.519485,5.858142,0.6,0.6,0.5,0.11,0.6,0.6,0.5,0.11,498,2020-09-29 13:43:49,2020-09-29 15:43:49.022,18,0,0,16.904,51.519486,5.85814,0.0,0.0,-0.5,-0.4,0.2,112.6,0,1,0,91,100,-4239,3192,16904,3031.5,11,TakeOff,1,0,0,0,0,0,0,1601387029022,4278,4271,4263,4267,0,0,27,,,,,,,0,0,0,4.0,2.0,1126.0,1.0,0.0,1137.0,11,6.0,5.0,1.06,0.0,0.0,-5.0,0,,,100,100,0,2,0,0,0,1,0,,,,,0.0,0.0,0
6,51.519485,5.858142,0.6,0.7,0.5,0.11,0.6,0.6,0.5,0.11,647,2020-09-29 13:43:49,2020-09-29 15:43:49.172,18,0,0,16.904,51.519486,5.85814,0.0,0.0,-0.5,-0.3,0.5,112.6,0,1,0,91,100,-4239,3192,16904,3031.5,11,TakeOff,1,0,0,0,0,0,0,1601387029171,4278,4271,4263,4267,0,0,27,,,,,,,0,0,0,3.0,5.0,1126.0,1.0,0.0,1137.0,11,6.0,5.0,1.07,0.0,0.0,-5.0,0,,,100,100,0,2,0,0,0,1,0,,,,,0.0,0.0,0
7,51.519485,5.858142,0.7,0.7,0.5,0.09,0.7,0.7,0.5,0.11,698,2020-09-29 13:43:49,2020-09-29 15:43:49.222,18,0,0,16.904,51.519486,5.85814,0.0,0.0,-0.5,-0.4,0.6,112.5,0,1,0,91,100,-4239,3192,16904,3031.5,11,TakeOff,1,0,0,0,0,0,0,1601387029222,4278,4271,4263,4267,0,0,27,,,,,,,0,0,0,4.0,6.0,1125.0,1.0,0.0,1137.0,11,7.0,5.0,0.85,0.0,0.0,-5.0,0,,,100,100,0,2,0,0,0,1,0,,,,,0.0,0.0,0
8,51.519485,5.858142,0.7,0.8,0.5,0.09,0.7,0.7,0.5,0.11,801,2020-09-29 13:43:49,2020-09-29 15:43:49.325,18,0,0,16.904,51.519486,5.85814,0.0,0.0,-0.5,-0.3,0.7,112.5,0,1,0,91,100,-4239,3192,16904,3031.5,11,TakeOff,1,0,0,0,0,0,0,1601387029325,4278,4271,4263,4267,0,0,27,,,,,,,0,0,0,3.0,7.0,1125.0,1.0,0.0,1137.0,11,7.0,5.0,0.85,0.0,0.0,-5.0,0,,,100,100,0,2,0,0,0,1,0,,,,,0.0,0.0,0
9,51.519486,5.858142,0.8,0.8,0.5,0.09,0.8,0.8,0.5,0.11,898,2020-09-29 13:43:49,2020-09-29 15:43:49.422,18,0,0,16.904,51.519486,5.85814,0.0,0.0,-0.5,-0.2,0.9,112.5,0,1,0,91,100,-4239,3192,16904,3031.5,11,TakeOff,1,0,0,0,0,0,0,1601387029422,4278,4271,4263,4267,0,0,27,,,,,,,0,0,0,2.0,9.0,1125.0,1.0,0.0,1137.0,11,8.0,5.0,0.88,0.0,0.0,-5.0,0,,,100,100,0,2,0,0,0,1,0,,,,,0.0,0.0,0
10,51.519486,5.858142,0.8,0.9,0.5,0.09,0.8,0.8,0.5,0.11,997,2020-09-29 13:43:49,2020-09-29 15:43:49.521,18,0,0,16.904,51.519486,5.85814,0.0,0.0,-0.5,-0.1,0.9,112.6,0,1,0,91,100,-4239,3192,16904,3031.5,11,TakeOff,1,0,0,0,0,0,0,1601387029521,4278,4271,4263,4267,0,0,27,,,,,,,0,0,0,1.0,9.0,1126.0,1.0,0.0,1137.0,11,8.0,5.0,0.91,0.0,0.0,-5.0,0,,,100,100,0,2,0,0,0,1,0,,,,,0.0,0.0,0
11,51.519486,5.858142,0.9,0.9,0.5,0.1,0.9,0.9,0.5,0.11,1146,2020-09-29 13:43:49,2020-09-29 15:43:49.671,18,0,0,16.904,51.519486,5.85814,0.0,0.0,-0.5,-0.1,1.1,112.6,0,1,0,91,100,-4239,3192,16904,3031.5,11,TakeOff,1,0,0,0,0,0,0,1601387029670,4278,4271,4263,4267,0,0,27,,,,,,,0,0,0,1.0,11.0,1126.0,1.0,0.0,1137.0,11,9.0,5.0,0.96,0.0,0.0,-5.0,0,,,100,100,0,2,0,0,0,1,0,,,,,0.0,0.0,0
12,51.519486,5.858142,0.9,1.0,0.4,0.1,0.9,0.9,0.5,0.11,1196,2020-09-29 13:43:49,2020-09-29 15:43:49.721,18,0,0,16.904,51.519486,5.85814,0.0,0.0,-0.4,-0.1,1.4,112.7,0,1,0,91,100,-4239,3192,16904,3031.5,11,TakeOff,1,0,0,0,0,0,0,1601387029720,4278,4271,4263,4267,0,0,27,,,,,,,0,0,0,1.0,14.0,1127.0,1.0,0.0,1137.0,11,9.0,4.0,1.01,0.0,0.0,-4.0,0,,,100,100,0,2,0,0,0,1,0,,,,,0.0,0.0,0
13,51.519486,5.858142,0.9,1.0,0.4,0.11,0.9,0.9,0.5,0.11,1299,2020-09-29 13:43:49,2020-09-29 15:43:49.823,18,0,0,16.904,51.519486,5.85814,0.0,0.0,-0.4,-0.4,1.4,112.8,0,1,0,91,100,-4239,3192,16904,3031.5,11,TakeOff,1,0,0,0,0,0,0,1601387029823,4278,4271,4263,4267,0,0,27,,,,,,,0,0,0,4.0,14.0,1128.0,1.0,0.0,1137.0,11,9.0,4.0,1.12,0.0,0.0,-4.0,0,,,100,100,0,2,0,0,0,1,0,,,,,0.0,0.0,0
14,51.519486,5.858142,1.0,1.1,0.4,0.12,1.0,1.0,0.5,0.12,1396,2020-09-29 13:43:49,2020-09-29 15:43:49.920,18,0,0,16.904,51.519486,5.85814,0.0,0.0,-0.4,0.0,1.4,112.7,0,1,0,91,100,-4239,3192,16904,3031.5,11,GPS,1,0,0,0,0,0,0,1601387029920,4278,4271,4263,4267,0,0,27,,,,,,,0,0,0,-0.0,14.0,1127.0,1.0,0.0,1137.0,6,10.0,4.0,1.18,0.0,0.0,-4.0,0,,,100,100,0,2,0,0,0,1,0,,,,,0.0,0.0,0
15,51.519486,5.858142,1.0,1.1,0.4,0.12,1.0,1.0,0.5,0.12,1494,2020-09-29 13:43:50,2020-09-29 15:43:50.019,18,0,0,16.904,51.519486,5.85814,0.0,0.0,-0.4,0.1,0.6,112.7,0,1,0,91,100,-4239,3192,16904,3031.5,11,WP,1,0,0,0,0,0,0,1601387030018,4278,4271,4263,4267,0,0,27,,,,,,,0,0,0,-1.0,6.0,1127.0,1.0,0.0,1137.0,14,10.0,4.0,1.18,0.0,0.0,-4.0,0,,,100,100,0,2,0,0,0,1,0,,,,,0.0,0.0,0
16,51.519486,5.858142,1.1,1.2,0.4,0.12,1.1,1.1,0.5,0.12,1613,2020-09-29 13:43:50,2020-09-29 15:43:50.138,18,0,0,16.586,51.519486,5.85814,0.0,0.0,-0.4,-0.1,0.5,112.6,0,1,0,91,100,-7248,3189,16586,3031.5,11,WP,1,0,0,0,0,0,0,1601387030137,4278,4271,4263,4267,0,0,27,,,,,,,0,0,0,1.0,5.0,1126.0,1.0,0.0,1136.0,14,11.0,4.0,1.23,0.0,0.0,-4.0,0,,,100,100,0,2,0,0,0,1,0,,,,,0.0,0.0,0
17,51.519486,5.858142,1.1,1.2,0.4,0.13,1.1,1.1,0.5,0.13,1698,2020-09-29 13:43:50,2020-09-29 15:43:50.223,18,0,0,16.586,51.519486,5.85814,0.0,0.0,-0.4,-0.3,1.0,112.4,0,1,0,91,100,-7248,3189,16586,3031.5,11,WP,1,0,0,0,0,0,0,1601387030222,4278,4271,4263,4267,0,0,27,,,,,,,0,0,0,3.0,10.0,1124.0,1.0,0.0,1136.0,14,11.0,4.0,1.3,0.0,0.0,-4.0,0,,,100,100,0,2,0,0,0,1,0,,,,,0.0,0.0,0
18,51.519486,5.858142,1.2,1.3,0.4,0.14,1.2,1.2,0.5,0.14,1849,2020-09-29 13:43:50,2020-09-29 15:43:50.373,18,0,0,16.586,51.519486,5.85814,0.0,0.0,-0.4,-0.3,1.7,112.4,0,1,0,91,100,-7248,3189,16586,3031.5,11,WP,1,0,0,0,0,0,0,1601387030373,4278,4271,4263,4267,0,0,27,,,,,,,0,0,0,3.0,17.0,1124.0,1.0,0.0,1136.0,14,12.0,4.0,1.39,0.0,0.0,-4.0,0,,,100,100,0,2,0,0,0,1,0,,,,,0.0,0.0,0
19,51.519486,5.858142,1.2,1.3,0.4,0.15,1.2,1.2,0.5,0.15,1949,2020-09-29 13:43:50,2020-09-29 15:43:50.473,18,0,0,16.586,51.519486,5.85814,0.0,0.0,-0.4,0.0,1.6,112.3,0,1,0,91,100,-7248,3189,16586,3031.5,11,WP,1,0,0,0,0,0,0,1601387030473,4278,4271,4263,4267,0,0,27,,,,,,,0,0,0,-0.0,16.0,1123.0,1.0,0.0,1136.0,14,12.0,4.0,1.49,0.0,0.0,-4.0,0,,,100,100,0,2,0,0,0,1,0,,,,,0.0,0.0,0
20,51.519486,5.858142,1.3,1.4,0.4,0.16,1.3,1.3,0.5,0.16,1998,2020-09-29 13:43:50,2020-09-29 15:43:50.523,18,0,0,16.586,51.519486,5.85814,0.0,0.0,-0.4,0.0,2.3,112.2,0,1,0,91,100,-7248,3189,16586,3031.5,11,WP,1,0,0,0,0,0,0,1601387030522,4278,4271,4263,4267,0,0,27,,,,,,,0,0,0,-0.0,23.0,1122.0,1.0,0.0,1136.0,14,13.0,4.0,1.58,0.0,0.0,-4.0,0,,,100,100,0,2,0,0,0,1,0,,,,,0.0,0.0,0
21,51.519486,5.858142,1.3,1.4,0.5,0.17,1.3,1.3,0.5,0.17,2098,2020-09-29 13:43:50,2020-09-29 15:43:50.622,18,0,0,16.586,51.519486,5.85814,0.0,0.0,-0.5,0.0,1.8,112.2,0,1,0,91,100,-7248,3189,16586,3031.5,11,WP,1,0,0,0,0,0,0,1601387030622,4278,4271,4263,4267,0,0,27,,,,,,,0,0,0,-0.0,18.0,1122.0,1.0,0.0,1136.0,14,13.0,5.0,1.7,0.0,0.0,-5.0,0,,,100,100,0,2,0,0,0,1,0,,,,,0.0,0.0,0
22,51.519487,5.858143,1.4,1.5,0.7,0.18,1.4,1.4,0.7,0.18,2199,2020-09-29 13:43:50,2020-09-29 15:43:50.723,18,0,0,16.586,51.519486,5.85814,0.0,0.0,-0.7,0.0,1.6,112.3,0,1,0,91,100,-7248,3189,16586,3031.5,11,WP,1,0,0,0,0,0,0,1601387030723,4278,4271,4263,4267,0,0,27,,,,,,,0,0,0,-0.0,16.0,1123.0,1.0,0.0,1136.0,14,14.0,7.0,1.81,0.0,0.0,-7.0,0,,,100,100,0,2,0,0,0,1,0,,,,,0.0,0.0,0
23,51.519487,5.858143,1.5,1.6,1.0,0.19,1.5,1.5,1.0,0.19,2296,2020-09-29 13:43:50,2020-09-29 15:43:50.820,18,0,0,16.586,51.519486,5.85814,0.0,0.0,-1.0,0.0,1.7,112.5,0,1,0,91,100,-7248,3189,16586,3031.5,11,WP,1,0,0,0,0,0,0,1601387030820,4278,4271,4263,4267,0,0,27,,,,,,,0,0,0,-0.0,17.0,1125.0,1.0,0.0,1135.0,14,15.0,10.0,1.87,0.0,0.0,-10.0,0,,,100,100,0,2,0,0,0,1,0,,,,,0.0,0.0,0
24,51.519487,5.858143,1.6,1.7,1.4,0.2,1.6,1.6,1.4,0.2,2398,2020-09-29 13:43:50,2020-09-29 15:43:50.923,18,0,0,16.586,51.519486,5.85814,0.0,0.0,-1.4,0.5,1.4,112.5,0,1,0,91,100,-7248,3189,16586,3031.5,11,WP,1,0,0,0,0,0,0,1601387030922,4278,4271,4263,4267,0,0,27,,,,,,,0,0,0,-5.0,14.0,1125.0,1.0,0.0,1135.0,14,16.0,14.0,1.97,0.0,0.0,-14.0,0,,,100,100,0,2,0,0,0,1,0,,,,,0.0,0.0,0
25,51.519487,5.858143,1.7,1.9,1.7,0.2,1.7,1.7,1.7,0.2,2497,2020-09-29 13:43:51,2020-09-29 15:43:51.022,18,0,0,16.586,51.519486,5.85814,0.0,0.0,-1.7,0.3,1.6,112.6,0,1,0,91,100,-7248,3189,16586,3031.5,11,WP,1,0,0,0,0,0,0,1601387031021,4278,4271,4263,4267,0,0,27,,,,,,,0,0,0,-3.0,16.0,1126.0,1.0,0.0,1135.0,14,17.0,17.0,1.96,0.0,0.0,-17.0,0,,,100,100,0,2,0,0,0,1,0,,,,,0.0,0.0,0
26,51.519487,5.858143,1.9,2.1,2.1,0.21,1.9,1.9,2.1,0.21,2613,2020-09-29 13:43:51,2020-09-29 15:43:51.138,18,0,0,16.586,51.519486,5.85814,0.0,0.0,-2.1,0.1,2.0,112.7,0,1,0,91,100,-7248,3189,16586,3031.5,11,WP,1,0,0,0,0,0,0,1601387031137,4278,4271,4263,4267,0,0,27,,,,,,,0,0,0,-1.0,20.0,1127.0,1.0,0.0,1135.0,14,19.0,21.0,2.06,0.0,0.0,-21.0,0,,,100,100,0,2,0,0,0,1,0,,,,,0.0,0.0,0
27,51.519487,5.858143,2.2,2.3,2.4,0.23,2.2,2.2,2.4,0.23,2698,2020-09-29 13:43:51,2020-09-29 15:43:51.223,18,0,0,16.586,51.519486,5.85814,0.0,0.0,-2.4,0.5,2.7,112.6,0,1,0,91,100,-7248,3189,16586,3031.5,11,WP,1,0,0,0,0,0,0,1601387031222,4278,4271,4263,4267,0,0,27,,,,,,,0,0,0,-5.0,27.0,1126.0,1.0,0.0,1134.0,14,22.0,24.0,2.25,0.0,0.0,-24.0,0,,,100,100,0,2,0,0,0,1,0,,,,,0.0,0.0,0
28,51.519487,5.858143,2.4,2.6,2.7,0.24,2.4,2.4,2.7,0.24,2800,2020-09-29 13:43:51,2020-09-29 15:43:51.324,18,0,0,16.586,51.519486,5.85814,0.0,0.0,-2.7,0.4,2.7,112.5,0,1,0,91,100,-7248,3189,16586,3031.5,11,WP,1,0,0,0,0,0,0,1601387031324,4278,4271,4263,4267,0,0,27,,,,,,,0,0,0,-4.0,27.0,1125.0,1.0,0.0,1134.0,14,24.0,27.0,2.35,0.0,0.0,-27.0,0,,,100,100,0,2,0,0,0,1,0,,,,,0.0,0.0,0
29,51.519487,5.858143,2.7,2.9,3.0,0.23,2.7,2.7,3.0,0.24,2901,2020-09-29 13:43:51,2020-09-29 15:43:51.426,18,0,0,16.586,51.519486,5.85814,0.0,0.0,-3.0,0.5,2.9,112.6,0,1,0,91,100,-7248,3189,16586,3031.5,11,WP,1,0,0,0,0,0,0,1601387031425,4278,4271,4263,4267,0,0,27,,,,,,,0,0,0,-5.0,29.0,1126.0,1.0,0.0,1134.0,14,27.0,30.0,2.31,0.0,0.0,-30.0,0,,,100,100,0,2,0,0,0,1,0,,,,,0.0,0.0,0
30,51.519487,5.858143,3.0,3.2,3.1,0.24,3.0,3.0,3.1,0.24,2997,2020-09-29 13:43:51,2020-09-29 15:43:51.522,18,0,0,16.586,51.519486,5.85814,0.0,0.0,-3.1,0.1,3.0,112.4,0,1,0,91,100,-7248,3189,16586,3031.5,11,WP,1,0,0,0,0,0,0,1601387031521,4278,4271,4263,4267,0,0,27,,,,,,,0,0,0,-1.0,30.0,1124.0,1.0,0.0,1134.0,14,30.0,31.0,2.38,0.0,0.0,-31.0,0,,,100,100,0,2,0,0,0,1,0,,,,,0.0,0.0,0
31,51.519488,5.858143,3.3,3.5,3.2,0.27,3.3,3.3,3.2,0.27,3097,2020-09-29 13:43:51,2020-09-29 15:43:51.621,18,0,0,16.586,51.519486,5.85814,0.0,0.0,-3.2,0.4,3.1,112.6,0,1,0,91,100,-7248,3189,16586,3031.5,11,WP,1,0,0,0,0,0,0,1601387031621,4278,4271,4263,4267,0,0,27,,,,,,,0,0,0,-4.0,31.0,1126.0,1.0,0.0,1134.0,14,33.0,32.0,2.67,0.0,0.0,-32.0,0,,,100,100,0,2,0,0,0,1,0,,,,,0.0,0.0,0
32,51.519488,5.858143,3.7,3.8,3.2,0.27,3.7,3.7,3.2,0.27,3263,2020-09-29 13:43:51,2020-09-29 15:43:51.788,18,0,0,16.586,51.519486,5.85814,0.0,0.0,-3.2,0.4,3.0,112.5,0,1,0,91,100,-7248,3189,16586,3031.5,11,WP,1,0,0,0,0,0,0,1601387031787,4278,4271,4263,4267,0,0,27,,,,,,,0,0,0,-4.0,30.0,1125.0,1.0,0.0,1134.0,14,37.0,32.0,2.74,0.0,0.0,-32.0,0,,,100,100,0,2,0,0,0,1,0,,,,,0.0,0.0,0
33,51.519488,5.858143,4.0,4.1,3.2,0.29,4.0,4.0,3.2,0.29,3296,2020-09-29 13:43:51,2020-09-29 15:43:51.821,18,0,0,16.586,51.519486,5.85814,0.0,0.0,-3.2,0.4,2.9,112.6,0,1,0,91,100,-7248,3189,16586,3031.5,11,WP,1,0,0,0,0,0,0,1601387031820,4278,4271,4263,4267,0,0,27,,,,,,,0,0,0,-4.0,29.0,1126.0,1.0,0.0,1133.0,14,40.0,32.0,2.89,0.0,0.0,-32.0,0,,,100,100,0,2,0,0,0,1,0,,,,,0.0,0.0,0
34,51.519488,5.858143,4.3,4.4,3.2,0.29,4.3,4.3,3.2,0.29,3433,2020-09-29 13:43:51,2020-09-29 15:43:51.958,18,0,0,16.586,51.519486,5.85814,0.0,0.0,-3.2,0.5,2.4,112.6,0,1,0,91,100,-7248,3189,16586,3031.5,11,WP,1,0,0,0,0,0,0,1601387031957,4278,4271,4263,4267,0,0,27,,,,,,,0,0,0,-5.0,24.0,1126.0,1.0,0.0,1133.0,14,43.0,32.0,2.94,0.0,0.0,-32.0,0,,,100,100,0,2,0,0,0,1,0,,,,,0.0,0.0,0
35,51.519488,5.858142,4.6,4.7,3.1,0.29,4.6,4.6,3.2,0.29,3500,2020-09-29 13:43:52,2020-09-29 15:43:52.025,18,0,0,16.586,51.519486,5.85814,0.0,0.0,-3.1,0.5,2.2,112.5,0,1,0,91,100,-7248,3189,16586,3031.5,11,WP,1,0,0,0,0,0,0,1601387032024,4278,4271,4263,4267,0,0,27,,,,,,,0,0,0,-5.0,22.0,1125.0,1.0,0.0,1133.0,14,46.0,31.0,2.89,0.0,0.0,-31.0,0,,,100,100,0,2,0,0,0,1,0,,,,,0.0,0.0,0
36,51.519488,5.858142,4.9,5.1,3.1,0.29,4.9,4.9,3.2,0.29,3597,2020-09-29 13:43:52,2020-09-29 15:43:52.121,18,0,0,16.3,51.519486,5.85814,0.0,0.0,-3.1,0.4,2.2,112.5,0,1,0,91,100,-9484,3185,16300,3031.5,11,WP,1,0,0,0,0,0,0,1601387032121,4278,4271,4263,4267,0,0,27,,,,,,,0,0,0,-4.0,22.0,1125.0,1.0,0.0,1133.0,14,49.0,31.0,2.93,0.0,0.0,-31.0,0,,,100,100,0,2,0,0,0,1,0,,,,,0.0,0.0,0
37,51.519488,5.858143,5.3,5.4,3.1,0.27,5.3,5.3,3.2,0.29,3695,2020-09-29 13:43:52,2020-09-29 15:43:52.219,17,0,0,16.3,51.519486,5.85814,0.0,0.0,-3.1,0.7,2.1,112.5,0,1,0,91,100,-9484,3185,16300,3031.5,11,WP,1,0,0,0,0,0,0,1601387032219,4278,4271,4263,4267,0,0,27,,,,,,,0,0,0,-7.0,21.0,1125.0,1.0,0.0,1133.0,14,53.0,31.0,2.72,0.0,0.0,-31.0,0,,,100,100,0,2,0,0,0,1,0,,,,,0.0,0.0,0
38,51.519488,5.858143,5.6,5.7,3.1,0.27,5.6,5.6,3.2,0.29,3792,2020-09-29 13:43:52,2020-09-29 15:43:52.317,17,0,0,16.3,51.519486,5.85814,0.0,0.0,-3.1,1.0,2.2,112.4,0,1,0,91,100,-9484,3185,16300,3031.5,11,WP,1,0,0,0,0,0,0,1601387032316,4278,4271,4263,4267,0,0,27,,,,,,,0,0,0,-10.0,22.0,1124.0,1.0,0.0,1133.0,14,56.0,31.0,2.74,0.0,0.0,-31.0,0,,,100,100,0,2,0,0,0,1,0,,,,,0.0,0.0,0
39,51.519488,5.858143,5.9,6.0,3.1,0.28,5.9,5.9,3.2,0.29,3900,2020-09-29 13:43:52,2020-09-29 15:43:52.425,18,0,0,16.3,51.519486,5.85814,0.0,0.0,-3.1,1.2,2.1,112.5,0,1,0,91,100,-9484,3185,16300,3031.5,11,WP,1,0,0,0,0,0,0,1601387032424,4278,4271,4263,4267,0,0,27,,,,,,,0,0,0,-12.0,21.0,1125.0,1.0,0.0,1133.0,14,59.0,31.0,2.8,0.0,0.0,-31.0,0,,,100,100,0,2,0,0,0,1,0,,,,,0.0,0.0,0
40,51.519488,5.858143,6.2,6.3,3.1,0.28,6.2,6.2,3.2,0.29,3997,2020-09-29 13:43:52,2020-09-29 15:43:52.522,18,0,0,16.3,51.519486,5.85814,0.0,0.0,-3.1,1.0,2.1,112.5,0,1,0,91,100,-9484,3185,16300,3031.5,11,WP,1,0,0,0,0,0,0,1601387032521,4278,4271,4263,4267,0,0,27,,,,,,,0,0,0,-10.0,21.0,1125.0,1.0,0.0,1133.0,14,62.0,31.0,2.83,0.0,0.0,-31.0,0,,,100,100,0,2,0,0,0,1,0,,,,,0.0,0.0,0
41,51.519488,5.858142,6.5,6.6,3.0,0.27,6.5,6.5,3.2,0.29,4096,2020-09-29 13:43:52,2020-09-29 15:43:52.621,18,0,0,16.3,51.519486,5.85814,0.0,0.0,-3.0,0.9,2.2,112.5,0,1,0,91,100,-9484,3185,16300,3031.5,11,WP,1,0,0,0,0,0,0,1601387032620,4278,4271,4263,4267,0,0,27,,,,,,,0,0,0,-9.0,22.0,1125.0,1.0,0.0,1133.0,14,65.0,30.0,2.7,0.0,0.0,-30.0,0,,,100,100,0,2,0,0,0,1,0,,,,,0.0,0.0,0
42,51.519488,5.858142,6.8,6.9,3.1,0.27,6.8,6.8,3.2,0.29,4198,2020-09-29 13:43:52,2020-09-29 15:43:52.722,18,0,0,16.3,51.519486,5.85814,0.0,0.0,-3.1,0.8,2.1,112.5,0,1,0,91,100,-9484,3185,16300,3031.5,11,WP,1,0,0,0,0,0,0,1601387032722,4278,4271,4263,4267,0,0,27,,,,,,,0,0,0,-8.0,21.0,1125.0,1.0,0.0,1133.0,14,68.0,31.0,2.74,0.0,0.0,-31.0,0,,,100,100,0,2,0,0,0,1,0,,,,,0.0,0.0,0
43,51.519488,5.858142,7.1,7.2,3.1,0.27,7.1,7.1,3.2,0.29,4299,2020-09-29 13:43:52,2020-09-29 15:43:52.823,18,0,0,16.3,51.519486,5.85814,0.0,0.1,-3.1,1.1,2.5,112.5,0,1,0,91,100,-9484,3185,16300,3031.5,11,WP,1,0,0,0,0,0,0,1601387032823,4278,4271,4263,4267,0,0,27,,,,,,,0,0,0,-11.0,25.0,1125.0,1.0,0.0,1133.0,14,71.0,31.02,2.7,0.0,1.0,-31.0,0,,,100,100,0,2,0,0,0,1,0,,,,,0.0,0.0,0
44,51.519488,5.858142,7.4,7.5,3.1,0.28,7.4,7.4,3.2,0.29,4399,2020-09-29 13:43:52,2020-09-29 15:43:52.924,18,0,0,16.3,51.519486,5.85814,0.0,0.1,-3.1,1.7,3.0,112.5,0,1,0,91,100,-9484,3185,16300,3031.5,11,WP,1,0,0,0,0,0,0,1601387032923,4278,4271,4263,4267,0,0,27,,,,,,,0,0,0,-17.0,30.0,1125.0,1.0,0.0,1133.0,14,74.0,31.02,2.76,0.0,1.0,-31.0,0,,,100,100,0,2,0,0,0,1,0,,,,,0.0,0.0,0
45,51.519488,5.858142,7.8,7.8,3.0,0.29,7.8,7.8,3.2,0.29,4500,2020-09-29 13:43:53,2020-09-29 15:43:53.024,18,0,0,16.3,51.519486,5.85814,0.0,0.1,-3.0,2.0,3.3,112.5,0,1,0,91,100,-9484,3185,16300,3031.5,11,WP,1,0,0,0,0,0,0,1601387033024,4278,4271,4263,4267,0,0,27,,,,,,,0,0,0,-20.0,33.0,1125.0,1.0,0.0,1133.0,14,78.0,30.02,2.89,0.0,1.0,-30.0,0,,,100,100,0,2,0,0,0,1,0,,,,,0.0,0.0,0
46,51.519488,5.858142,8.1,8.2,3.0,0.3,8.1,8.1,3.2,0.3,4602,2020-09-29 13:43:53,2020-09-29 15:43:53.127,18,0,0,16.3,51.519486,5.85814,0.0,0.1,-3.0,1.7,3.5,112.6,0,1,0,91,100,-9484,3185,16300,3031.5,11,WP,1,0,0,0,0,0,0,1601387033126,4278,4271,4263,4267,0,0,27,,,,,,,0,0,0,-17.0,35.0,1126.0,1.0,0.0,1133.0,14,81.0,30.02,2.95,0.0,1.0,-30.0,0,,,100,100,0,2,0,0,0,1,0,,,,,0.0,0.0,0
47,51.519488,5.858142,8.4,8.5,3.0,0.25,8.4,8.4,3.2,0.3,4700,2020-09-29 13:43:53,2020-09-29 15:43:53.225,18,0,0,16.3,51.519486,5.85814,0.0,0.1,-3.0,1.5,3.0,112.6,0,1,0,91,100,-9484,3185,16300,3031.5,11,WP,1,0,0,0,0,0,0,1601387033224,4278,4271,4263,4267,0,0,27,,,,,,,0,0,0,-15.0,30.0,1126.0,1.0,0.0,1133.0,14,84.0,30.02,2.51,0.0,1.0,-30.0,0,,,100,100,0,2,0,0,0,1,0,,,,,0.0,0.0,0
48,51.519488,5.858142,8.7,8.8,3.0,0.25,8.7,8.7,3.2,0.3,4798,2020-09-29 13:43:53,2020-09-29 15:43:53.322,18,0,0,16.3,51.519486,5.85814,0.0,0.1,-3.0,2.0,2.8,112.6,0,1,0,91,100,-9484,3185,16300,3031.5,11,WP,1,0,0,0,0,0,0,1601387033322,4278,4271,4263,4267,0,0,27,,,,,,,0,0,0,-20.0,28.0,1126.0,1.0,0.0,1133.0,14,87.0,30.02,2.52,0.0,1.0,-30.0,0,,,100,100,0,2,0,0,0,1,0,,,,,0.0,0.0,0
49,51.519487,5.858142,9.0,9.1,3.0,0.22,9.0,9.0,3.2,0.3,4896,2020-09-29 13:43:53,2020-09-29 15:43:53.421,17,0,0,16.3,51.519486,5.85814,0.0,0.1,-3.0,2.0,2.5,112.5,0,1,0,91,100,-9484,3185,16300,3031.5,11,WP,1,0,0,0,0,0,0,1601387033420,4278,4271,4263,4267,0,0,27,,,,,,,0,0,0,-20.0,25.0,1125.0,1.0,0.0,1133.0,14,90.0,30.02,2.19,0.0,1.0,-30.0,0,,,100,100,0,2,0,0,0,1,0,,,,,0.0,0.0,0
50,51.519487,5.858142,9.3,9.4,3.0,0.22,9.3,9.3,3.2,0.3,4997,2020-09-29 13:43:53,2020-09-29 15:43:53.522,17,0,0,16.3,51.519486,5.85814,0.0,0.1,-3.0,2.2,2.7,112.5,0,1,0,91,100,-9484,3185,16300,3031.5,11,WP,1,0,0,0,0,0,0,1601387033521,4278,4271,4263,4267,0,0,27,,,,,,,0,0,0,-22.0,27.0,1125.0,1.0,0.0,1132.0,14,93.0,30.02,2.18,0.0,1.0,-30.0,0,,,100,100,0,2,0,0,0,1,0,,,,,0.0,0.0,0
51,51.519487,5.858142,9.6,9.7,3.0,0.22,9.6,9.6,3.2,0.3,5097,2020-09-29 13:43:53,2020-09-29 15:43:53.621,18,0,0,16.3,51.519486,5.85814,0.0,0.1,-3.0,2.3,3.1,112.5,0,1,0,91,100,-9484,3185,16300,3031.5,11,WP,1,0,0,0,0,0,0,1601387033621,4278,4271,4263,4267,0,0,27,,,,,,,0,0,0,-23.0,31.0,1125.0,1.0,0.0,1132.0,14,96.0,30.02,2.24,0.0,1.0,-30.0,0,,,100,100,0,2,0,0,0,1,0,,,,,0.0,0.0,0
52,51.519487,5.858142,9.9,10.0,3.0,0.22,9.9,9.9,3.2,0.3,5202,2020-09-29 13:43:53,2020-09-29 15:43:53.726,18,0,0,16.3,51.519486,5.85814,0.0,0.1,-3.0,1.9,3.2,112.5,0,1,0,91,100,-9484,3185,16300,3031.5,11,WP,1,0,0,0,0,0,0,1601387033726,4278,4271,4263,4267,0,0,27,,,,,,,0,0,0,-19.0,32.0,1125.0,1.0,0.0,1132.0,14,99.0,30.02,2.25,0.0,1.0,-30.0,0,,,100,100,0,2,0,0,0,1,0,,,,,0.0,0.0,0
53,51.519488,5.858142,10.2,10.3,3.0,0.28,10.2,10.2,3.2,0.3,5298,2020-09-29 13:43:53,2020-09-29 15:43:53.822,18,0,0,16.3,51.519486,5.85814,0.0,0.1,-3.0,1.6,4.0,112.6,0,1,0,91,100,-9484,3185,16300,3031.5,11,WP,1,0,0,0,0,0,0,1601387033822,4278,4271,4263,4267,0,0,27,,,,,,,0,0,0,-16.0,40.0,1126.0,1.0,0.0,1132.0,14,102.0,30.02,2.78,0.0,1.0,-30.0,0,,,100,100,0,2,0,0,0,1,0,,,,,0.0,0.0,0
54,51.519488,5.858142,10.5,10.6,2.9,0.29,10.5,10.5,3.2,0.3,5399,2020-09-29 13:43:53,2020-09-29 15:43:53.924,18,0,0,16.3,51.519486,5.85814,0.0,0.1,-2.9,1.6,5.0,112.5,0,1,0,91,100,-9484,3185,16300,3031.5,11,WP,1,0,0,0,0,0,0,1601387033923,4278,4271,4263,4267,0,0,27,,,,,,,0,0,0,-16.0,50.0,1125.0,1.0,0.0,1132.0,14,105.0,29.02,2.86,0.0,1.0,-29.0,0,,,100,100,0,2,0,0,0,1,0,,,,,0.0,0.0,0
55,51.519488,5.858142,10.8,10.9,2.7,0.31,10.8,10.8,3.2,0.31,5502,2020-09-29 13:43:54,2020-09-29 15:43:54.026,18,0,0,16.3,51.519486,5.85814,0.0,0.1,-2.7,1.5,5.5,112.5,0,1,0,91,100,-9484,3185,16300,3031.5,11,WP,1,0,0,0,0,0,0,1601387034026,4278,4271,4263,4267,0,0,27,,,,,,,0,0,0,-15.0,55.0,1125.0,1.0,0.0,1132.0,14,108.0,27.02,3.09,0.0,1.0,-27.0,0,,,100,100,0,2,0,0,0,1,0,,,,,0.0,0.0,0
56,51.519488,5.858142,11.0,0.0,2.6,0.31,11.0,11.0,3.2,0.31,5601,2020-09-29 13:43:54,2020-09-29 15:43:54.125,18,0,0,16.418,51.519486,5.85814,0.0,0.1,-2.6,1.3,5.7,112.6,0,1,0,91,100,-8564,3180,16418,3031.5,11,WP,1,0,0,0,0,0,0,1601387034125,4120,4092,4088,4104,0,0,27,,,,,,,0,0,0,-13.0,57.0,1126.0,1.0,0.0,1132.0,14,110.0,26.02,3.15,0.0,1.0,-26.0,0,,,100,100,0,2,0,0,0,1,0,,,,,0.0,0.0,0
57,51.519488,5.858142,11.3,0.0,2.4,0.3,11.3,11.3,3.2,0.31,5698,2020-09-29 13:43:54,2020-09-29 15:43:54.223,18,0,0,16.418,51.519486,5.85814,0.0,0.1,-2.4,1.5,5.4,112.6,0,1,0,91,100,-8564,3180,16418,3031.5,11,WP,1,0,0,0,0,0,0,1601387034222,4120,4092,4088,4104,0,0,27,,,,,,,0,0,0,-15.0,54.0,1126.0,1.0,0.0,1132.0,14,113.0,24.02,2.98,0.0,1.0,-24.0,0,,,100,100,0,2,0,0,0,1,0,,,,,0.0,0.0,0
58,51.519488,5.858142,11.6,0.0,2.3,0.3,11.6,11.6,3.2,0.31,5796,2020-09-29 13:43:54,2020-09-29 15:43:54.320,18,0,0,16.418,51.519486,5.85814,0.0,0.1,-2.3,1.8,4.9,112.6,0,1,0,91,100,-8564,3180,16418,3031.5,11,WP,1,0,0,0,0,0,0,1601387034320,4120,4092,4088,4104,0,0,27,,,,,,,0,0,0,-18.0,49.0,1126.0,1.0,0.0,1132.0,14,116.0,23.02,2.99,0.0,1.0,-23.0,0,,,100,100,0,2,0,0,0,1,0,,,,,0.0,0.0,0
59,51.519488,5.858142,11.8,0.0,2.2,0.27,11.8,11.8,3.2,0.31,5903,2020-09-29 13:43:54,2020-09-29 15:43:54.427,18,0,0,16.418,51.519486,5.85814,0.0,0.1,-2.2,2.1,4.5,112.6,0,1,0,91,100,-8564,3180,16418,3031.5,11,WP,1,0,0,0,0,0,0,1601387034427,4120,4092,4088,4104,0,0,27,,,,,,,0,0,0,-21.0,45.0,1126.0,1.0,0.0,1132.0,14,118.0,22.02,2.66,0.0,1.0,-22.0,0,,,100,100,0,2,0,0,0,1,0,,,,,0.0,0.0,0
60,51.519488,5.858142,12.0,0.0,2.1,0.26,12.0,12.0,3.2,0.31,5998,2020-09-29 13:43:54,2020-09-29 15:43:54.522,18,0,0,16.418,51.519486,5.85814,0.0,0.0,-2.1,2.3,4.1,112.6,0,1,0,91,100,-8564,3180,16418,3031.5,11,WP,1,0,0,0,0,0,0,1601387034522,4120,4092,4088,4104,0,0,27,,,,,,,0,0,0,-23.0,41.0,1126.0,1.0,0.0,1132.0,14,120.0,21.0,2.61,0.0,0.0,-21.0,0,,,100,100,0,2,0,0,0,1,0,,,,,0.0,0.0,0
61,51.519488,5.858142,12.2,0.0,2.0,0.26,12.2,12.2,3.2,0.31,6099,2020-09-29 13:43:54,2020-09-29 15:43:54.624,18,0,0,16.418,51.519486,5.85814,0.0,0.0,-2.0,2.2,4.1,112.5,0,1,0,91,100,-8564,3180,16418,3031.5,11,WP,1,0,0,0,0,0,0,1601387034623,4120,4092,4088,4104,0,0,27,,,,,,,0,0,0,-22.0,41.0,1125.0,1.0,0.0,1132.0,14,122.0,20.0,2.64,0.0,0.0,-20.0,0,,,100,100,0,2,0,0,0,1,0,,,,,0.0,0.0,0
62,51.519488,5.858142,12.4,0.0,1.9,0.26,12.4,12.4,3.2,0.31,6199,2020-09-29 13:43:54,2020-09-29 15:43:54.723,18,0,0,16.418,51.519486,5.85814,0.0,0.0,-1.9,2.0,4.3,112.5,0,1,0,91,100,-8564,3180,16418,3031.5,11,WP,1,0,0,0,0,0,0,1601387034723,4120,4092,4088,4104,0,0,27,,,,,,,0,0,0,-20.0,43.0,1125.0,1.0,0.0,1132.0,14,124.0,19.0,2.59,0.0,0.0,-19.0,0,,,100,100,0,2,0,0,0,1,0,,,,,0.0,0.0,0
63,51.519487,5.858142,12.6,0.0,1.8,0.25,12.6,12.6,3.2,0.31,6302,2020-09-29 13:43:54,2020-09-29 15:43:54.827,18,0,0,16.418,51.519486,5.85814,0.0,0.0,-1.8,1.9,4.4,112.5,0,1,0,91,100,-8564,3180,16418,3031.5,11,WP,1,0,0,0,0,0,0,1601387034826,4120,4092,4088,4104,0,0,27,,,,,,,0,0,0,-19.0,44.0,1125.0,1.0,0.0,1132.0,14,126.0,18.0,2.49,0.0,0.0,-18.0,0,,,100,100,0,2,0,0,0,1,0,,,,,0.0,0.0,0
64,51.519487,5.858142,12.8,0.0,1.8,0.24,12.8,12.8,3.2,0.31,6401,2020-09-29 13:43:54,2020-09-29 15:43:54.926,18,0,0,16.418,51.519486,5.85814,0.0,0.0,-1.8,1.8,4.5,112.5,0,1,0,91,100,-8564,3180,16418,3031.5,11,WP,1,0,0,0,0,0,0,1601387034925,4120,4092,4088,4104,0,0,27,,,,,,,0,0,0,-18.0,45.0,1125.0,1.0,0.0,1132.0,14,128.0,18.0,2.43,0.0,0.0,-18.0,0,,,100,100,0,2,0,0,0,1,0,,,,,0.0,0.0,0
65,51.519488,5.858142,13.0,0.0,1.7,0.25,13.0,13.0,3.2,0.31,6497,2020-09-29 13:43:55,2020-09-29 15:43:55.022,18,0,0,16.418,51.519486,5.85814,0.0,0.0,-1.7,1.8,4.5,112.6,0,1,0,91,100,-8564,3180,16418,3031.5,11,WP,1,0,0,0,0,0,0,1601387035021,4120,4092,4088,4104,0,0,27,,,,,,,0,0,0,-18.0,45.0,1126.0,1.0,0.0,1132.0,14,130.0,17.0,2.51,0.0,0.0,-17.0,0,,,100,100,0,2,0,0,0,1,0,,,,,0.0,0.0,0
66,51.519487,5.858142,13.1,0.0,1.7,0.24,13.1,13.1,3.2,0.31,6608,2020-09-29 13:43:55,2020-09-29 15:43:55.133,18,0,0,16.418,51.519486,5.85814,0.0,0.0,-1.7,2.0,4.5,112.6,0,1,0,91,100,-8564,3180,16418,3031.5,11,WP,1,0,0,0,0,0,0,1601387035132,4120,4092,4088,4104,0,0,27,,,,,,,0,0,0,-20.0,45.0,1126.0,1.0,0.0,1132.0,14,131.0,17.0,2.44,0.0,0.0,-17.0,0,,,100,100,0,2,0,0,0,1,0,,,,,0.0,0.0,0
67,51.519487,5.858142,13.3,0.0,1.6,0.23,13.3,13.3,3.2,0.31,6702,2020-09-29 13:43:55,2020-09-29 15:43:55.227,18,0,0,16.418,51.519486,5.85814,0.0,0.0,-1.6,1.8,4.2,112.6,0,1,0,91,100,-8564,3180,16418,3031.5,11,WP,1,0,0,0,0,0,0,1601387035226,4120,4092,4088,4104,0,0,27,,,,,,,0,0,0,-18.0,42.0,1126.0,1.0,0.0,1132.0,14,133.0,16.0,2.3,0.0,0.0,-16.0,0,,,100,100,0,2,0,0,0,1,0,,,,,0.0,0.0,0
68,51.519487,5.858142,13.5,0.0,1.5,0.22,13.5,13.5,3.2,0.31,6801,2020-09-29 13:43:55,2020-09-29 15:43:55.326,18,0,0,16.418,51.519486,5.85814,0.0,0.0,-1.5,1.8,4.0,112.6,0,1,0,91,100,-8564,3180,16418,3031.5,11,WP,1,0,0,0,0,0,0,1601387035325,4120,4092,4088,4104,0,0,27,,,,,,,0,0,0,-18.0,40.0,1126.0,1.0,0.0,1132.0,14,135.0,15.0,2.22,0.0,0.0,-15.0,0,,,100,100,0,2,0,0,0,1,0,,,,,0.0,0.0,0
69,51.519487,5.858142,13.6,0.0,1.4,0.18,13.6,13.6,3.2,0.31,6902,2020-09-29 13:43:55,2020-09-29 15:43:55.427,18,0,0,16.418,51.519486,5.85814,0.0,0.0,-1.4,1.5,3.5,112.5,0,1,0,91,100,-8564,3180,16418,3031.5,11,WP,1,0,0,0,0,0,0,1601387035426,4120,4092,4088,4104,0,0,27,,,,,,,0,0,0,-15.0,35.0,1125.0,1.0,0.0,1132.0,14,136.0,14.0,1.83,0.0,0.0,-14.0,0,,,100,100,0,2,0,0,0,1,0,,,,,0.0,0.0,0
70,51.519487,5.858142,13.7,0.0,1.3,0.17,13.7,13.7,3.2,0.31,7049,2020-09-29 13:43:55,2020-09-29 15:43:55.574,18,0,0,16.418,51.519486,5.85814,0.0,0.0,-1.3,1.2,3.1,112.5,0,1,0,91,100,-8564,3180,16418,3031.5,11,WP,1,0,0,0,0,0,0,1601387035573,4120,4092,4088,4104,0,0,27,,,,,,,0,0,0,-12.0,31.0,1125.0,1.0,0.0,1132.0,14,137.0,13.0,1.73,0.0,0.0,-13.0,0,,,100,100,0,2,0,0,0,1,0,,,,,0.0,0.0,0
71,51.519487,5.858142,13.9,0.0,1.2,0.19,13.9,13.9,3.2,0.31,7149,2020-09-29 13:43:55,2020-09-29 15:43:55.674,18,0,0,16.418,51.519486,5.85814,0.0,0.0,-1.2,1.1,3.4,112.5,0,1,0,91,100,-8564,3180,16418,3031.5,11,WP,1,0,0,0,0,0,0,1601387035673,4120,4092,4088,4104,0,0,27,,,,,,,0,0,0,-11.0,34.0,1125.0,1.0,0.0,1132.0,14,139.0,12.0,1.9,0.0,0.0,-12.0,0,,,100,100,0,2,0,0,0,1,0,,,,,0.0,0.0,0
72,51.519487,5.858141,14.0,0.0,1.1,0.18,14.0,14.0,3.2,0.31,7200,2020-09-29 13:43:55,2020-09-29 15:43:55.725,18,0,0,16.418,51.519486,5.85814,0.0,0.0,-1.1,1.2,3.7,112.4,0,1,0,91,100,-8564,3180,16418,3031.5,11,WP,1,0,0,0,0,0,0,1601387035724,4120,4092,4088,4104,0,0,27,,,,,,,0,0,0,-12.0,37.0,1124.0,1.0,0.0,1132.0,14,140.0,11.0,1.85,0.0,0.0,-11.0,0,,,100,100,0,2,0,0,0,1,0,,,,,0.0,0.0,0
73,51.519487,5.858141,14.1,0.0,1.0,0.16,14.1,14.1,3.2,0.31,7301,2020-09-29 13:43:55,2020-09-29 15:43:55.825,18,0,0,16.418,51.519486,5.85814,0.0,0.0,-1.0,1.0,3.6,112.4,0,1,0,91,100,-8564,3180,16418,3031.5,11,WP,1,0,0,0,0,0,0,1601387035825,4120,4092,4088,4104,0,0,27,,,,,,,0,0,0,-10.0,36.0,1124.0,1.0,0.0,1132.0,14,141.0,10.0,1.61,0.0,0.0,-10.0,0,,,100,100,0,2,0,0,0,1,0,,,,,0.0,0.0,0
74,51.519487,5.858141,14.2,0.0,1.0,0.16,14.2,14.2,3.2,0.31,7419,2020-09-29 13:43:55,2020-09-29 15:43:55.944,18,0,0,16.418,51.519486,5.85814,0.0,0.0,-1.0,0.7,3.3,112.5,0,1,0,91,100,-8564,3180,16418,3031.5,11,WP,1,0,0,0,0,0,0,1601387035943,4120,4092,4088,4104,0,0,27,,,,,,,0,0,0,-7.0,33.0,1125.0,1.0,0.0,1132.0,14,142.0,10.0,1.55,0.0,0.0,-10.0,0,,,100,100,0,2,0,0,0,1,0,,,,,0.0,0.0,0
75,51.519487,5.858141,14.3,0.0,0.9,0.17,14.3,14.3,3.2,0.31,7503,2020-09-29 13:43:56,2020-09-29 15:43:56.028,18,0,0,16.418,51.519486,5.85814,0.0,0.0,-0.9,0.8,3.6,112.5,0,1,0,91,100,-8564,3180,16418,3031.5,11,WP,1,0,0,0,0,0,0,1601387036027,4120,4092,4088,4104,0,0,27,,,,,,,0,0,0,-8.0,36.0,1125.0,1.0,0.0,1132.0,14,143.0,9.0,1.71,0.0,0.0,-9.0,0,,,100,100,0,2,0,0,0,1,0,,,,,0.0,0.0,0
76,51.519487,5.858141,14.4,0.0,0.8,0.17,14.4,14.4,3.2,0.31,7602,2020-09-29 13:43:56,2020-09-29 15:43:56.127,18,0,0,16.531,51.519486,5.85814,0.0,0.0,-0.8,0.9,3.8,112.5,0,1,0,91,100,-6840,3176,16531,3031.5,11,WP,1,0,0,0,0,0,0,1601387036126,4120,4092,4088,4104,0,0,27,,,,,,,0,0,0,-9.0,38.0,1125.0,1.0,0.0,1132.0,14,144.0,8.0,1.7,0.0,0.0,-8.0,0,,,100,100,0,2,0,0,0,1,0,,,,,0.0,0.0,0
77,51.519487,5.858141,14.4,0.0,0.8,0.16,14.4,14.4,3.2,0.31,7703,2020-09-29 13:43:56,2020-09-29 15:43:56.227,18,0,0,16.531,51.519486,5.85814,0.0,0.0,-0.8,0.9,3.7,112.4,0,1,0,91,100,-6840,3176,16531,3031.5,11,WP,1,0,0,0,0,0,0,1601387036227,4120,4092,4088,4104,0,0,27,,,,,,,0,0,0,-9.0,37.0,1124.0,1.0,0.0,1132.0,14,144.0,8.0,1.62,0.0,0.0,-8.0,0,,,100,100,0,2,0,0,0,1,0,,,,,0.0,0.0,0
78,51.519487,5.858141,14.5,0.0,0.7,0.16,14.5,14.5,3.2,0.31,7803,2020-09-29 13:43:56,2020-09-29 15:43:56.327,18,0,0,16.531,51.519486,5.85814,0.0,0.0,-0.7,1.0,3.7,112.4,0,1,0,91,100,-6840,3176,16531,3031.5,11,WP,1,0,0,0,0,0,0,1601387036327,4120,4092,4088,4104,0,0,27,,,,,,,0,0,0,-10.0,37.0,1124.0,1.0,0.0,1132.0,14,145.0,7.0,1.61,0.0,0.0,-7.0,0,,,100,100,0,2,0,0,0,1,0,,,,,0.0,0.0,0
79,51.519487,5.858141,14.6,0.0,0.7,0.16,14.6,14.6,3.2,0.31,7903,2020-09-29 13:43:56,2020-09-29 15:43:56.428,18,0,0,16.531,51.519486,5.85814,0.0,0.0,-0.7,1.6,3.3,112.4,0,1,0,91,100,-6840,3176,16531,3031.5,11,WP,1,0,0,0,0,0,0,1601387036427,4120,4092,4088,4104,0,0,27,,,,,,,0,0,0,-16.0,33.0,1124.0,1.0,0.0,1132.0,14,146.0,7.0,1.59,0.0,0.0,-7.0,0,,,100,100,0,2,0,0,0,1,0,,,,,0.0,0.0,0
80,51.519487,5.858141,14.6,0.0,0.5,0.16,14.6,14.6,3.2,0.31,8001,2020-09-29 13:43:56,2020-09-29 15:43:56.525,18,0,0,16.531,51.519486,5.85814,0.0,0.0,-0.5,2.7,2.9,111.9,0,1,0,91,100,-6840,3176,16531,3031.5,11,WP,1,0,0,0,0,0,0,1601387036525,4120,4092,4088,4104,0,0,27,,,,,,,0,0,0,-27.0,29.0,1119.0,1.0,0.0,1132.0,14,146.0,5.0,1.6,0.0,0.0,-5.0,0,,,100,100,0,2,0,0,0,1,0,,,,,0.0,0.0,0
81,51.519487,5.858141,14.7,0.0,0.2,0.17,14.7,14.7,3.2,0.31,8102,2020-09-29 13:43:56,2020-09-29 15:43:56.627,18,0,0,16.531,51.519486,5.85814,0.0,0.0,-0.2,2.8,3.3,110.8,0,1,0,91,100,-6840,3176,16531,3031.5,11,WP,1,0,0,0,0,0,0,1601387036626,4120,4092,4088,4104,0,0,27,,,,,,,0,0,0,-28.0,33.0,1108.0,1.0,0.0,1132.0,14,147.0,2.0,1.7,0.0,0.0,-2.0,0,,,100,100,0,2,0,0,0,1,0,,,,,0.0,0.0,0
82,51.519487,5.858141,14.7,0.0,0.1,0.18,14.7,14.7,3.2,0.31,8198,2020-09-29 13:43:56,2020-09-29 15:43:56.723,18,0,0,16.531,51.519486,5.85814,0.0,0.0,-0.1,2.4,3.2,109.2,0,1,0,91,100,-6840,3176,16531,3031.5,11,WP,1,0,0,0,0,0,0,1601387036722,4120,4092,4088,4104,0,0,27,,,,,,,0,0,0,-24.0,32.0,1092.0,1.0,0.0,1131.0,14,147.0,1.0,1.77,0.0,0.0,-1.0,0,,,100,100,0,2,0,0,0,1,0,,,,,0.0,0.0,0
83,51.519487,5.858141,14.7,0.0,0.0,0.17,14.7,14.7,3.2,0.31,8298,2020-09-29 13:43:56,2020-09-29 15:43:56.823,18,0,0,16.531,51.519486,5.85814,0.0,0.0,0.0,2.0,3.2,106.9,0,1,0,91,100,-6840,3176,16531,3031.5,11,WP,1,0,0,0,0,0,0,1601387036822,4120,4092,4088,4104,0,0,27,,,,,,,0,0,0,-20.0,32.0,1069.0,1.0,0.0,1126.0,14,147.0,0.0,1.71,0.0,0.0,0.0,0,,,100,100,0,2,0,0,0,1,0,,,,,0.0,0.0,0
84,51.519487,5.858141,14.7,0.0,0.0,0.18,14.7,14.7,3.2,0.31,8398,2020-09-29 13:43:56,2020-09-29 15:43:56.923,18,0,0,16.531,51.519486,5.85814,0.0,0.0,0.0,1.9,3.3,103.9,0,1,0,91,100,-6840,3176,16531,3031.5,11,WP,1,0,0,0,0,0,0,1601387036922,4120,4092,4088,4104,0,0,27,,,,,,,0,0,0,-19.0,33.0,1039.0,1.0,0.0,1112.0,14,147.0,0.0,1.79,0.0,0.0,0.0,0,,,100,100,0,2,0,0,0,1,0,,,,,0.0,0.0,0
85,51.519487,5.858142,14.7,0.0,0.0,0.15,14.7,14.7,3.2,0.31,8499,2020-09-29 13:43:57,2020-09-29 15:43:57.024,18,0,0,16.531,51.519486,5.85814,0.0,0.0,0.0,2.3,3.2,100.6,0,1,0,91,100,-6840,3176,16531,3031.5,11,WP,1,0,0,0,0,0,0,1601387037023,4120,4092,4088,4104,0,0,27,,,,,,,0,0,0,-23.0,32.0,1006.0,1.0,0.0,1088.0,14,147.0,0.0,1.54,0.0,0.0,0.0,0,,,100,100,0,2,0,0,0,1,0,,,,,0.0,0.0,0
86,51.519487,5.858142,14.7,0.0,0.0,0.16,14.7,14.7,3.2,0.31,8599,2020-09-29 13:43:57,2020-09-29 15:43:57.124,18,0,0,16.531,51.519486,5.85814,0.0,0.0,0.0,2.7,2.7,96.7,0,1,0,91,100,-6840,3176,16531,3031.5,11,WP,1,0,0,0,0,0,0,1601387037123,4120,4092,4088,4104,0,0,27,,,,,,,0,0,0,-27.0,27.0,967.0,1.0,0.0,1055.0,14,147.0,0.0,1.59,0.0,0.0,0.0,0,,,100,100,0,2,0,0,0,1,0,,,,,0.0,0.0,0
87,51.519487,5.858142,14.7,0.0,0.0,0.17,14.7,14.7,3.2,0.31,8700,2020-09-29 13:43:57,2020-09-29 15:43:57.225,18,0,0,16.531,51.519486,5.85814,0.0,0.0,0.0,3.0,2.6,92.2,0,1,0,91,100,-6840,3176,16531,3031.5,11,WP,1,0,0,0,0,0,0,1601387037224,4120,4092,4088,4104,0,0,27,,,,,,,0,0,0,-30.0,26.0,922.0,1.0,0.0,1016.0,14,147.0,0.0,1.68,0.0,0.0,0.0,0,,,100,100,0,2,0,0,0,1,0,,,,,0.0,0.0,0
88,51.519487,5.858142,14.7,0.0,0.0,0.17,14.7,14.7,3.2,0.31,8801,2020-09-29 13:43:57,2020-09-29 15:43:57.326,18,0,0,16.531,51.519486,5.85814,0.0,0.0,0.0,3.3,2.3,87.1,0,1,0,91,100,-6840,3176,16531,3031.5,11,WP,1,0,0,0,0,0,0,1601387037325,4120,4092,4088,4104,0,0,27,,,,,,,0,0,0,-33.0,23.0,871.0,1.0,0.0,972.0,14,147.0,0.0,1.74,0.0,0.0,0.0,0,,,100,100,0,2,0,0,0,1,0,,,,,0.0,0.0,0
89,51.519487,5.858142,14.7,0.0,0.1,0.19,14.7,14.7,3.2,0.31,8901,2020-09-29 13:43:57,2020-09-29 15:43:57.426,18,0,0,16.531,51.519486,5.85814,0.0,0.1,0.0,3.9,1.8,81.4,0,1,0,91,100,-6840,3176,16531,3031.5,11,WP,1,0,0,0,0,0,0,1601387037425,4120,4092,4088,4104,0,0,27,,,,,,,0,0,0,-39.0,18.0,814.0,1.0,0.0,921.0,14,147.0,1.0,1.92,0.0,1.0,0.0,0,,,100,100,0,2,0,0,0,1,0,,,,,0.0,0.0,0
90,51.519487,5.858143,14.7,0.0,0.0,0.2,14.7,14.7,3.2,0.31,8996,2020-09-29 13:43:57,2020-09-29 15:43:57.521,18,0,0,16.531,51.519486,5.85814,0.0,0.0,0.0,4.5,1.5,75.2,0,1,0,91,100,-6840,3176,16531,3031.5,11,WP,1,0,0,0,0,0,0,1601387037520,4120,4092,4088,4104,0,0,27,,,,,,,0,0,0,-45.0,15.0,752.0,1.0,0.0,863.0,14,147.0,0.0,1.98,0.0,0.0,0.0,0,,,100,100,0,2,0,0,0,1,0,,,,,0.0,0.0,0
91,51.519487,5.858143,14.7,0.0,0.0,0.24,14.7,14.7,3.2,0.31,9149,2020-09-29 13:43:57,2020-09-29 15:43:57.674,18,0,0,16.531,51.519486,5.85814,0.0,0.0,0.0,4.6,1.0,69.8,0,1,0,91,100,-6840,3176,16531,3031.5,11,WP,1,0,0,0,0,0,0,1601387037673,4120,4092,4088,4104,0,0,27,,,,,,,0,0,0,-46.0,10.0,698.0,1.0,0.0,799.0,14,147.0,0.0,2.36,0.0,0.0,0.0,0,,,100,100,0,2,0,0,0,1,0,,,,,0.0,0.0,0
92,51.519487,5.858143,14.7,0.0,0.0,0.24,14.7,14.7,3.2,0.31,9202,2020-09-29 13:43:57,2020-09-29 15:43:57.726,18,0,0,16.531,51.519486,5.85814,0.0,0.0,0.0,5.2,0.9,66.1,0,1,0,91,100,-6840,3176,16531,3031.5,11,WP,1,0,0,0,0,0,0,1601387037726,4120,4092,4088,4104,0,0,27,,,,,,,0,0,0,-52.0,9.0,661.0,1.0,0.0,740.0,14,147.0,0.0,2.44,0.0,0.0,0.0,0,,,100,100,0,2,0,0,0,1,0,,,,,0.0,0.0,0
93,51.519487,5.858144,14.7,0.0,0.1,0.27,14.7,14.7,3.2,0.31,9300,2020-09-29 13:43:57,2020-09-29 15:43:57.825,18,0,0,16.531,51.519486,5.85814,0.0,0.1,0.0,5.5,0.4,63.7,0,1,0,91,100,-6840,3176,16531,3031.5,11,WP,1,0,0,0,0,0,0,1601387037824,4120,4092,4088,4104,0,0,27,,,,,,,0,0,0,-55.0,4.0,637.0,1.0,0.0,696.0,14,147.0,1.0,2.68,0.0,1.0,0.0,0,,,100,100,0,2,0,0,0,1,0,,,,,0.0,0.0,0
94,51.519487,5.858144,14.7,0.0,0.0,0.28,14.7,14.7,3.2,0.31,9416,2020-09-29 13:43:57,2020-09-29 15:43:57.941,18,0,0,16.531,51.519486,5.85814,0.0,0.0,0.0,5.6,0.1,62.2,0,1,0,91,100,-6840,3176,16531,3031.5,11,WP,1,0,0,0,0,0,0,1601387037940,4120,4092,4088,4104,0,0,27,,,,,,,0,0,0,-56.0,1.0,622.0,1.0,0.0,667.0,14,147.0,0.0,2.76,0.0,0.0,0.0,0,,,100,100,0,2,0,0,0,1,0,,,,,0.0,0.0,0
95,51.519487,5.858144,14.7,0.0,0.0,0.32,14.7,14.7,3.2,0.32,9504,2020-09-29 13:43:58,2020-09-29 15:43:58.029,18,0,0,16.531,51.519486,5.85814,0.0,0.0,0.0,5.8,0.0,61.5,0,1,0,91,100,-6840,3176,16531,3031.5,11,WP,1,0,0,0,0,0,0,1601387038028,4120,4092,4088,4104,0,0,27,,,,,,,0,0,0,-58.0,0.0,615.0,1.0,0.0,649.0,14,147.0,0.0,3.21,0.0,0.0,0.0,0,,,100,100,0,2,0,0,0,1,0,,,,,0.0,0.0,0
96,51.519487,5.858144,14.7,0.0,0.0,0.33,14.7,14.7,3.2,0.33,9604,2020-09-29 13:43:58,2020-09-29 15:43:58.128,18,0,0,16.497,51.519486,5.85814,0.0,0.0,0.0,5.8,0.0,61.2,0,1,0,91,100,-6548,3172,16497,3031.5,11,WP,1,0,0,0,0,0,0,1601387038128,4120,4092,4088,4104,0,0,27,,,,,,,0,0,0,-58.0,0.0,612.0,1.0,0.0,637.0,14,147.0,0.0,3.29,0.0,0.0,0.0,0,,,100,100,0,2,0,0,0,1,0,,,,,0.0,0.0,0
97,51.519487,5.858145,14.7,0.0,0.0,0.36,14.7,14.7,3.2,0.36,9704,2020-09-29 13:43:58,2020-09-29 15:43:58.229,18,0,0,16.497,51.519486,5.85814,0.0,0.0,0.0,5.8,-0.1,61.0,0,1,0,91,100,-6548,3172,16497,3031.5,11,WP,1,0,0,0,0,0,0,1601387038228,4120,4092,4088,4104,0,0,27,,,,,,,0,0,0,-58.0,-1.0,610.0,1.0,0.0,631.0,14,147.0,0.0,3.6,0.0,0.0,0.0,0,,,100,100,0,2,0,0,0,1,0,,,,,0.0,0.0,0
98,51.519487,5.858145,14.6,0.0,0.0,0.37,14.7,14.7,3.2,0.37,9803,2020-09-29 13:43:58,2020-09-29 15:43:58.327,18,0,0,16.497,51.519486,5.85814,0.0,0.0,0.0,5.9,0.0,60.9,0,1,0,91,100,-6548,3172,16497,3031.5,11,WP,1,0,0,0,0,0,0,1601387038327,4120,4092,4088,4104,0,0,27,,,,,,,0,0,0,-59.0,0.0,609.0,1.0,0.0,627.0,14,146.0,0.0,3.67,0.0,0.0,0.0,0,,,100,100,0,2,0,0,0,1,0,,,,,0.0,0.0,0
99,51.519487,5.858145,14.6,0.0,0.0,0.38,14.7,14.7,3.2,0.38,9902,2020-09-29 13:43:58,2020-09-29 15:43:58.427,18,0,0,16.497,51.519486,5.85814,0.0,0.0,0.0,5.2,0.0,61.0,0,1,0,91,100,-6548,3172,16497,3031.5,11,WP,1,0,0,0,0,0,0,1601387038426,4120,4092,4088,4104,0,0,27,,,,,,,0,0,0,-52.0,0.0,610.0,1.0,0.0,625.0,14,146.0,0.0,3.8,0.0,0.0,0.0,0,,,100,100,0,2,0,0,0,1,0,,,,,0.0,0.0,0
100,51.519487,5.858145,14.6,0.0,0.0,0.39,14.7,14.7,3.2,0.39,10001,2020-09-29 13:43:58,2020-09-29 15:43:58.525,18,0,0,16.497,51.519486,5.85814,0.0,0.0,0.0,-0.7,0.5,60.9,0,1,0,91,100,-6548,3172,16497,3031.5,11,WP,1,0,0,0,0,0,0,1601387038525,4120,4092,4088,4104,0,0,27,,,,,,,0,0,0,7.0,5.0,609.0,1.0,0.0,624.0,14,146.0,0.0,3.86,0.0,0.0,0.0,0,,,100,100,0,2,0,0,0,1,0,,,,,0.0,0.0,0
101,51.519488,5.858145,14.6,0.0,0.1,0.42,14.7,14.7,3.2,0.42,10101,2020-09-29 13:43:58,2020-09-29 15:43:58.626,18,0,0,16.497,51.519486,5.85814,0.0,0.1,0.0,-6.0,0.0,60.9,0,1,0,91,100,-6548,3172,16497,3031.5,11,WP,1,0,0,0,0,0,0,1601387038625,4120,4092,4088,4104,0,0,27,,,,,,,0,0,0,60.0,0.0,609.0,1.0,0.0,623.0,14,146.0,1.0,4.15,0.0,1.0,0.0,0,,,100,100,0,2,0,0,0,1,0,,,,,0.0,0.0,0
102,51.519488,5.858146,14.6,0.0,0.32,0.45,14.7,14.7,3.2,0.45,10203,2020-09-29 13:43:58,2020-09-29 15:43:58.728,18,0,0,16.497,51.519486,5.85814,0.1,0.3,0.0,-9.7,-0.4,61.0,0,1,0,91,100,-6548,3172,16497,3031.5,11,WP,1,0,0,0,0,0,0,1601387038727,4120,4092,4088,4104,0,0,27,,,,,,,0,0,0,97.0,-4.0,610.0,1.0,0.0,623.0,14,146.0,3.16,4.47,1.0,3.0,0.0,0,,,100,100,0,2,0,0,0,1,0,,,,,0.0,0.0,0
103,51.519488,5.858147,14.6,0.0,0.58,0.52,14.7,14.7,3.2,0.52,10300,2020-09-29 13:43:58,2020-09-29 15:43:58.825,18,0,0,16.497,51.519486,5.85814,0.3,0.5,0.0,-12.1,-0.3,61.0,0,1,0,91,100,-6548,3172,16497,3031.5,11,WP,1,0,0,0,0,0,0,1601387038824,4120,4092,4088,4104,0,0,27,,,,,,,0,0,0,121.0,-3.0,610.0,1.0,0.0,622.0,14,146.0,5.83,5.16,3.0,5.0,0.0,0,,,100,100,0,2,0,0,0,1,0,,,,,0.0,0.0,0
104,51.519489,5.858148,14.6,0.0,0.89,0.6,14.7,14.7,3.2,0.6,10403,2020-09-29 13:43:58,2020-09-29 15:43:58.927,18,0,0,16.497,51.519486,5.85814,0.4,0.8,0.0,-13.4,-0.1,60.9,0,1,0,91,100,-6548,3172,16497,3031.5,11,WP,1,0,0,0,0,0,0,1601387038927,4120,4092,4088,4104,0,0,27,,,,,,,0,0,0,134.0,-1.0,609.0,1.0,0.0,622.0,14,146.0,8.94,6.02,4.0,8.0,0.0,0,,,100,100,0,2,0,0,0,1,0,,,,,0.0,0.0,0
105,51.519489,5.858149,14.6,0.0,1.25,0.73,14.7,14.7,3.2,0.73,10504,2020-09-29 13:43:59,2020-09-29 15:43:59.028,18,0,0,16.497,51.519486,5.85814,0.6,1.1,0.0,-14.4,0.0,60.9,0,1,0,91,100,-6548,3172,16497,3031.5,11,WP,1,0,0,0,0,0,0,1601387039028,4120,4092,4088,4104,0,0,27,,,,,,,0,0,0,144.0,0.0,609.0,1.0,0.0,622.0,14,146.0,12.53,7.28,6.0,11.0,0.0,0,,,100,100,0,2,0,0,0,1,0,,,,,0.0,0.0,0
106,51.51949,5.858151,14.5,0.0,1.48,0.88,14.7,14.7,3.2,0.88,10602,2020-09-29 13:43:59,2020-09-29 15:43:59.126,18,0,0,16.497,51.519486,5.85814,0.7,1.3,0.0,-15.0,0.1,60.9,0,1,0,91,100,-6548,3172,16497,3031.5,11,WP,1,0,0,0,0,0,0,1601387039126,4120,4092,4088,4104,0,0,27,,,,,,,0,0,0,150.0,1.0,609.0,1.0,0.0,621.0,14,145.0,14.76,8.76,7.0,13.0,0.0,0,,,100,100,0,2,0,0,0,1,0,,,,,0.0,0.0,0
107,51.51949,5.858153,14.5,0.0,1.79,1.01,14.7,14.7,3.2,1.01,10704,2020-09-29 13:43:59,2020-09-29 15:43:59.228,18,0,0,16.497,51.519486,5.85814,0.8,1.6,0.0,-15.9,0.0,61.2,0,1,0,91,100,-6548,3172,16497,3031.5,11,WP,1,0,0,0,0,0,0,1601387039228,4120,4092,4088,4104,0,0,27,,,,,,,0,0,0,159.0,0.0,612.0,1.0,0.0,621.0,14,145.0,17.89,10.12,8.0,16.0,0.0,0,,,100,100,0,2,0,0,0,1,0,,,,,0.0,0.0,0
108,51.519491,5.858156,14.5,0.0,2.19,1.22,14.7,14.7,3.2,1.22,10801,2020-09-29 13:43:59,2020-09-29 15:43:59.326,18,0,0,16.497,51.519486,5.85814,0.9,2.0,0.0,-16.9,-0.7,64.9,0,1,0,91,100,-6548,3172,16497,3031.5,11,WP,1,0,0,0,0,0,0,1601387039325,4120,4092,4088,4104,0,0,27,,,,,,,0,0,0,169.0,-7.0,649.0,1.0,0.0,621.0,14,145.0,21.93,12.21,9.0,20.0,0.0,0,,,100,100,0,2,0,0,0,1,0,,,,,0.0,0.0,0
109,51.51949,5.858159,14.5,0.0,2.44,1.4,14.7,14.7,3.2,1.4,10902,2020-09-29 13:43:59,2020-09-29 15:43:59.427,18,0,0,16.497,51.519486,5.85814,0.8,2.3,0.0,-17.3,-3.0,64.4,0,1,0,91,100,-6548,3172,16497,3031.5,11,WP,1,0,0,0,0,0,0,1601387039426,4120,4092,4088,4104,0,0,27,,,,,,,0,0,0,173.0,-30.0,644.0,1.0,0.0,613.0,14,145.0,24.35,14.01,8.0,23.0,0.0,0,,,100,100,0,2,0,0,0,1,0,,,,,0.0,0.0,0
110,51.519491,5.858163,14.6,0.0,2.72,1.67,14.7,14.7,3.2,1.67,11005,2020-09-29 13:43:59,2020-09-29 15:43:59.529,18,0,0,16.497,51.519486,5.85814,0.8,2.6,0.0,-17.4,-5.9,66.3,0,1,0,91,100,-6548,3172,16497,3031.5,11,WP,1,0,0,0,0,0,0,1601387039529,4120,4092,4088,4104,0,0,27,,,,,,,0,0,0,174.0,-59.0,663.0,1.0,0.0,595.0,14,146.0,27.2,16.74,8.0,26.0,0.0,0,,,100,100,0,2,0,0,0,1,0,,,,,0.0,0.0,0
111,51.51949,5.858167,14.6,0.0,3.01,1.93,14.7,14.7,3.2,1.93,11102,2020-09-29 13:43:59,2020-09-29 15:43:59.627,18,0,0,16.497,51.519486,5.85814,0.8,2.9,0.0,-17.0,-7.8,65.0,0,1,0,91,100,-6548,3172,16497,3031.5,11,WP,1,0,0,0,0,0,0,1601387039626,4120,4092,4088,4104,0,0,27,,,,,,,0,0,0,170.0,-78.0,650.0,1.0,0.0,567.0,14,146.0,30.08,19.32,8.0,29.0,0.0,0,,,100,100,0,2,0,0,0,1,0,,,,,0.0,0.0,0
112,51.519491,5.858172,14.6,0.0,3.32,2.26,14.7,14.7,3.32,2.26,11205,2020-09-29 13:43:59,2020-09-29 15:43:59.730,18,0,0,16.497,51.519486,5.85814,0.9,3.2,0.0,-16.5,-10.0,66.4,0,1,0,91,100,-6548,3172,16497,3031.5,11,WP,1,0,0,0,0,0,0,1601387039729,4120,4092,4088,4104,0,0,27,,,,,,,0,0,0,165.0,-100.0,664.0,1.0,0.0,543.0,14,146.0,33.24,22.64,9.0,32.0,0.0,0,,,100,100,0,2,0,0,0,1,0,,,,,0.0,0.0,0
113,51.51949,5.858177,14.6,0.0,3.54,2.59,14.7,14.7,3.54,2.59,11305,2020-09-29 13:43:59,2020-09-29 15:43:59.830,18,0,0,16.497,51.519486,5.85814,1.0,3.4,0.0,-16.4,-11.7,65.2,0,1,0,91,100,-6548,3172,16497,3031.5,11,WP,1,0,0,0,0,0,0,1601387039829,4120,4092,4088,4104,0,0,27,,,,,,,0,0,0,164.0,-117.0,652.0,1.0,0.0,519.0,14,146.0,35.44,25.92,10.0,34.0,0.0,0,,,100,100,0,2,0,0,0,1,0,,,,,0.0,0.0,0
114,51.519491,5.858183,14.6,0.0,3.76,2.98,14.7,14.7,3.76,2.98,11405,2020-09-29 13:43:59,2020-09-29 15:43:59.930,18,0,0,16.497,51.519486,5.85814,1.1,3.6,0.0,-16.5,-13.6,66.2,0,1,0,91,100,-6548,3172,16497,3031.5,11,WP,1,0,0,0,0,0,0,1601387039929,4120,4092,4088,4104,0,0,27,,,,,,,0,0,0,165.0,-136.0,662.0,1.0,0.0,500.0,14,146.0,37.64,29.76,11.0,36.0,0.0,0,,,100,100,0,2,0,0,0,1,0,,,,,0.0,0.0,0
115,51.51949,5.858189,14.6,0.0,4.08,3.4,14.7,14.7,4.08,3.4,11505,2020-09-29 13:44:00,2020-09-29 15:44:00.030,18,0,0,16.497,51.519486,5.85814,1.2,3.9,0.0,-16.3,-14.4,65.2,0,1,0,91,100,-6548,3172,16497,3031.5,11,WP,1,0,0,0,0,0,0,1601387040029,4120,4092,4088,4104,0,0,27,,,,,,,0,0,0,163.0,-144.0,652.0,1.0,0.0,481.0,14,146.0,40.8,34.04,12.0,39.0,0.0,0,,,100,100,0,2,0,0,0,1,0,,,,,0.0,0.0,0
116,51.519492,5.858195,14.6,0.0,4.37,3.84,14.7,14.7,4.37,3.84,11605,2020-09-29 13:44:00,2020-09-29 15:44:00.129,18,0,0,16.428,51.519486,5.85814,1.5,4.1,0.0,-16.5,-15.2,65.7,0,1,0,91,100,-7170,3168,16428,3031.5,11,WP,1,0,0,0,0,0,0,1601387040129,4120,4092,4088,4104,0,0,27,,,,,,,0,0,0,165.0,-152.0,657.0,1.0,0.0,466.0,14,146.0,43.66,38.37,15.0,41.0,0.0,0,,,100,100,0,2,0,0,0,1,0,,,,,0.0,0.0,0
117,51.519492,5.858201,14.6,0.0,4.62,4.28,14.7,14.7,4.62,4.28,11704,2020-09-29 13:44:00,2020-09-29 15:44:00.228,18,0,0,16.428,51.519486,5.85814,1.7,4.3,0.0,-16.8,-15.2,67.1,0,1,0,91,100,-7170,3168,16428,3031.5,11,WP,1,0,0,0,0,0,0,1601387040228,4120,4092,4088,4104,0,0,27,,,,,,,0,0,0,168.0,-152.0,671.0,1.0,0.0,452.0,14,146.0,46.24,42.83,17.0,43.0,0.0,0,,,100,100,0,2,0,0,0,1,0,,,,,0.0,0.0,0
118,51.519493,5.858208,14.6,0.0,5.06,4.77,14.7,14.7,5.06,4.77,11805,2020-09-29 13:44:00,2020-09-29 15:44:00.330,18,0,0,16.428,51.519486,5.85814,2.1,4.6,0.0,-16.7,-15.5,66.5,0,1,0,91,100,-7170,3168,16428,3031.5,11,WP,1,0,0,0,0,0,0,1601387040329,4120,4092,4088,4104,0,0,27,,,,,,,0,0,0,167.0,-155.0,665.0,1.0,0.0,442.0,14,146.0,50.57,47.68,21.0,46.0,0.0,0,,,100,100,0,2,0,0,0,1,0,,,,,0.0,0.0,0
119,51.519494,5.858216,14.6,0.0,5.37,5.31,14.7,14.7,5.37,5.31,11906,2020-09-29 13:44:00,2020-09-29 15:44:00.430,18,0,0,16.428,51.519486,5.85814,2.4,4.8,0.0,-16.5,-15.5,65.1,0,1,0,91,100,-7170,3168,16428,3031.5,11,WP,1,0,0,0,0,0,0,1601387040430,4120,4092,4088,4104,0,0,27,,,,,,,0,0,0,165.0,-155.0,651.0,1.0,0.0,432.0,14,146.0,53.67,53.12,24.0,48.0,0.0,0,,,100,100,0,2,0,0,0,1,0,,,,,0.0,0.0,0
120,51.519496,5.858223,14.6,0.0,5.59,5.84,14.7,14.7,5.59,5.84,12027,2020-09-29 13:44:00,2020-09-29 15:44:00.552,18,0,0,16.428,51.519486,5.85814,2.7,4.9,0.0,-16.4,-15.5,64.4,0,1,0,91,100,-7170,3168,16428,3031.5,11,WP,1,0,0,0,0,0,0,1601387040551,4120,4092,4088,4104,0,0,27,,,,,,,0,0,0,164.0,-155.0,644.0,1.0,0.0,425.0,14,146.0,55.95,58.43,27.0,49.0,0.0,0,,,100,100,0,2,0,0,0,1,0,,,,,0.0,0.0,0
121,51.519497,5.858231,14.6,0.0,5.91,6.43,14.7,14.7,5.91,6.43,12103,2020-09-29 13:44:00,2020-09-29 15:44:00.628,18,0,0,16.428,51.519486,5.85814,2.8,5.2,0.0,-17.1,-14.9,65.2,0,1,0,91,100,-7170,3168,16428,3031.5,11,WP,1,0,0,0,0,0,0,1601387040627,4120,4092,4088,4104,0,0,27,,,,,,,0,0,0,171.0,-149.0,652.0,1.0,0.0,418.0,14,146.0,59.06,64.28,28.0,52.0,0.0,0,,,100,100,0,2,0,0,0,1,0,,,,,0.0,0.0,0
122,51.5195,5.858239,14.6,0.0,6.23,7.01,14.7,14.7,6.23,7.01,12203,2020-09-29 13:44:00,2020-09-29 15:44:00.728,18,0,0,16.428,51.519486,5.85814,3.1,5.4,0.0,-17.6,-15.0,64.6,0,1,0,91,100,-7170,3168,16428,3031.5,11,WP,1,0,0,0,0,0,0,1601387040727,4120,4092,4088,4104,0,0,27,,,,,,,0,0,0,176.0,-150.0,646.0,1.0,0.0,412.0,14,146.0,62.27,70.07,31.0,54.0,0.0,0,,,100,100,0,2,0,0,0,1,0,,,,,0.0,0.0,0
123,51.519502,5.858249,14.6,0.0,6.47,7.72,14.7,14.7,6.47,7.72,12304,2020-09-29 13:44:00,2020-09-29 15:44:00.828,18,0,0,16.428,51.519486,5.85814,3.4,5.5,0.0,-18.1,-14.3,63.9,0,1,0,91,100,-7170,3168,16428,3031.5,11,WP,1,0,0,0,0,0,0,1601387040828,4120,4092,4088,4104,0,0,27,,,,,,,0,0,0,181.0,-143.0,639.0,1.0,0.0,407.0,14,146.0,64.66,77.24,34.0,55.0,0.0,0,,,100,100,0,2,0,0,0,1,0,,,,,0.0,0.0,0
124,51.519505,5.858257,14.6,0.0,6.8,8.36,14.7,14.7,6.8,8.36,12402,2020-09-29 13:44:00,2020-09-29 15:44:00.927,18,0,0,16.428,51.519486,5.85814,3.7,5.7,0.0,-18.5,-13.6,63.6,0,1,0,91,100,-7170,3168,16428,3031.5,11,WP,1,0,0,0,0,0,0,1601387040926,4120,4092,4088,4104,0,0,27,,,,,,,0,0,0,185.0,-136.0,636.0,1.0,0.0,403.0,14,146.0,67.96,83.6,37.0,57.0,0.0,0,,,100,100,0,2,0,0,0,1,0,,,,,0.0,0.0,0
125,51.519508,5.858267,14.6,0.0,7.13,9.09,14.7,14.7,7.13,9.09,12504,2020-09-29 13:44:01,2020-09-29 15:44:01.029,18,0,0,16.428,51.519486,5.85814,4.0,5.9,0.0,-19.1,-12.3,63.3,0,1,0,91,100,-7170,3168,16428,3031.5,11,WP,1,0,0,0,0,0,0,1601387041028,4120,4092,4088,4104,0,0,27,,,,,,,0,0,0,191.0,-123.0,633.0,1.0,0.0,399.0,14,146.0,71.28,90.92,40.0,59.0,0.0,0,,,100,100,0,2,0,0,0,1,0,,,,,0.0,0.0,0
126,51.519511,5.858275,14.6,0.0,7.32,9.79,14.7,14.7,7.32,9.79,12605,2020-09-29 13:44:01,2020-09-29 15:44:01.129,18,0,0,16.428,51.519486,5.85814,4.2,6.0,0.0,-19.7,-11.2,63.2,0,1,0,91,100,-7170,3168,16428,3031.5,11,WP,1,0,0,0,0,0,0,1601387041129,4120,4092,4088,4104,0,0,27,,,,,,,0,0,0,197.0,-112.0,632.0,1.0,0.0,396.0,14,146.0,73.24,97.85,42.0,60.0,0.0,0,,,100,100,0,2,0,0,0,1,0,,,,,0.0,0.0,0
127,51.519514,5.858286,14.6,0.0,7.66,10.58,14.7,14.7,7.66,10.58,12704,2020-09-29 13:44:01,2020-09-29 15:44:01.229,18,0,0,16.428,51.519486,5.85814,4.5,6.2,0.0,-20.7,-10.0,63.0,0,1,0,91,100,-7170,3168,16428,3031.5,11,WP,1,0,0,0,0,0,0,1601387041228,4120,4092,4088,4104,0,0,27,,,,,,,0,0,0,207.0,-100.0,630.0,1.0,0.0,393.0,14,146.0,76.61,105.76,45.0,62.0,0.0,0,,,100,100,0,2,0,0,0,1,0,,,,,0.0,0.0,0
128,51.519518,5.858295,14.6,0.0,7.94,11.33,14.7,14.7,7.94,11.33,12804,2020-09-29 13:44:01,2020-09-29 15:44:01.329,18,0,0,16.428,51.519486,5.85814,4.7,6.4,0.0,-21.8,-8.5,62.8,0,1,0,91,100,-7170,3168,16428,3031.5,11,WP,1,0,0,0,0,0,0,1601387041328,4120,4092,4088,4104,0,0,27,,,,,,,0,0,0,218.0,-85.0,628.0,1.0,0.0,391.0,14,146.0,79.4,113.3,47.0,64.0,0.0,0,,,100,100,0,2,0,0,0,1,0,,,,,0.0,0.0,0
129,51.519522,5.858306,14.6,0.0,8.22,12.18,14.7,14.7,8.22,12.18,12903,2020-09-29 13:44:01,2020-09-29 15:44:01.428,18,0,0,16.428,51.519486,5.85814,4.9,6.6,0.0,-22.5,-7.1,62.5,0,1,0,91,100,-7170,3168,16428,3031.5,11,WP,1,0,0,0,0,0,0,1601387041427,4120,4092,4088,4104,0,0,27,,,,,,,0,0,0,225.0,-71.0,625.0,1.0,0.0,389.0,14,146.0,82.2,121.78,49.0,66.0,0.0,0,,,100,100,0,2,0,0,0,1,0,,,,,0.0,0.0,0
130,51.519526,5.858316,14.6,0.0,8.5,13.0,14.7,14.7,8.5,13.0,13005,2020-09-29 13:44:01,2020-09-29 15:44:01.530,18,0,0,16.428,51.519486,5.85814,5.1,6.8,0.0,-23.1,-6.3,62.6,0,1,0,91,100,-7170,3168,16428,3031.5,11,WP,1,0,0,0,0,0,0,1601387041529,4120,4092,4088,4104,0,0,27,,,,,,,0,0,0,231.0,-63.0,626.0,1.0,0.0,387.0,14,146.0,85.0,129.99,51.0,68.0,0.0,0,,,100,100,0,2,0,0,0,1,0,,,,,0.0,0.0,0
131,51.519531,5.858327,14.6,0.0,8.86,13.91,14.7,14.7,8.86,13.91,13154,2020-09-29 13:44:01,2020-09-29 15:44:01.678,18,0,0,16.428,51.519486,5.85814,5.3,7.1,0.0,-23.5,-5.4,62.3,0,1,0,91,100,-7170,3168,16428,3031.5,11,WP,1,0,0,0,0,0,0,1601387041678,4120,4092,4088,4104,0,0,27,,,,,,,0,0,0,235.0,-54.0,623.0,1.0,0.0,386.0,14,146.0,88.6,139.1,53.0,71.0,0.0,0,,,100,100,0,2,0,0,0,1,0,,,,,0.0,0.0,0
132,51.519535,5.858339,14.6,0.0,9.08,14.8,14.7,14.7,9.08,14.8,13203,2020-09-29 13:44:01,2020-09-29 15:44:01.728,18,0,0,16.428,51.519486,5.85814,5.4,7.3,0.0,-23.5,-4.7,62.1,0,1,0,91,100,-7170,3168,16428,3031.5,11,WP,1,0,0,0,0,0,0,1601387041727,4120,4092,4088,4104,0,0,27,,,,,,,0,0,0,235.0,-47.0,621.0,1.0,0.0,384.0,14,146.0,90.8,147.99,54.0,73.0,0.0,0,,,100,100,0,2,0,0,0,1,0,,,,,0.0,0.0,0
133,51.51954,5.85835,14.6,0.0,9.44,15.77,14.7,14.7,9.44,15.77,13305,2020-09-29 13:44:01,2020-09-29 15:44:01.829,18,0,0,16.428,51.519486,5.85814,5.6,7.6,0.0,-23.5,-4.1,62.1,0,1,0,91,100,-7170,3168,16428,3031.5,11,WP,1,0,0,0,0,0,0,1601387041829,4120,4092,4088,4104,0,0,27,,,,,,,0,0,0,235.0,-41.0,621.0,1.0,0.0,383.0,14,146.0,94.4,157.69,56.0,76.0,0.0,0,,,100,100,0,2,0,0,0,1,0,,,,,0.0,0.0,0
134,51.519544,5.858362,14.6,0.0,9.66,16.73,14.7,14.7,9.66,16.73,13455,2020-09-29 13:44:01,2020-09-29 15:44:01.979,18,0,0,16.428,51.519486,5.85814,5.7,7.8,0.0,-23.8,-3.9,63.6,0,1,0,91,100,-7170,3168,16428,3031.5,11,WP,1,0,0,0,0,0,0,1601387041979,4120,4092,4088,4104,0,0,27,,,,,,,0,0,0,238.0,-39.0,636.0,1.0,0.0,382.0,14,146.0,96.61,167.25,57.0,78.0,0.0,0,,,100,100,0,2,0,0,0,1,0,,,,,0.0,0.0,0
135,51.51955,5.858375,14.6,0.0,10.01,17.75,14.7,14.7,10.01,17.75,13504,2020-09-29 13:44:02,2020-09-29 15:44:02.029,18,0,0,16.428,51.519486,5.85814,5.6,8.3,0.0,-23.8,-3.8,62.9,0,1,0,91,100,-7170,3168,16428,3031.5,11,WP,1,0,0,0,0,0,0,1601387042028,4120,4092,4088,4104,0,0,27,,,,,,,0,0,0,238.0,-38.0,629.0,1.0,0.0,381.0,14,146.0,100.12,177.45,56.0,83.0,0.0,0,,,100,100,0,2,0,0,0,1,0,,,,,0.0,0.0,0
136,51.519554,5.858387,14.6,0.0,10.23,18.76,14.7,14.7,10.23,18.76,13604,2020-09-29 13:44:02,2020-09-29 15:44:02.129,18,0,0,16.4,51.519486,5.85814,5.7,8.5,0.0,-23.6,-4.3,62.7,0,1,0,91,100,-7712,3164,16400,3031.5,11,WP,1,0,0,0,0,0,0,1601387042128,4120,4092,4088,4104,0,0,27,,,,,,,0,0,0,236.0,-43.0,627.0,1.0,0.0,380.0,14,146.0,102.34,187.65,57.0,85.0,0.0,0,,,100,100,0,2,0,0,0,1,0,,,,,0.0,0.0,0
137,51.51956,5.858401,14.6,0.0,10.54,19.85,14.7,14.7,10.54,19.85,13705,2020-09-29 13:44:02,2020-09-29 15:44:02.230,18,0,0,16.4,51.519486,5.85814,5.8,8.8,0.0,-23.1,-4.8,62.4,0,1,0,91,100,-7712,3164,16400,3031.5,11,WP,1,0,0,0,0,0,0,1601387042229,4120,4092,4088,4104,0,0,27,,,,,,,0,0,0,231.0,-48.0,624.0,1.0,0.0,379.0,14,146.0,105.39,198.53,58.0,88.0,0.0,0,,,100,100,0,2,0,0,0,1,0,,,,,0.0,0.0,0
138,51.519565,5.858414,14.6,0.0,10.76,20.93,14.7,14.7,10.76,20.93,13805,2020-09-29 13:44:02,2020-09-29 15:44:02.329,18,0,0,16.4,51.519486,5.85814,5.9,9.0,0.0,-23.5,-4.9,62.2,0,1,0,91,100,-7712,3164,16400,3031.5,11,WP,1,0,0,0,0,0,0,1601387042329,4120,4092,4088,4104,0,0,27,,,,,,,0,0,0,235.0,-49.0,622.0,1.0,0.0,379.0,14,146.0,107.62,209.33,59.0,90.0,0.0,0,,,100,100,0,2,0,0,0,1,0,,,,,0.0,0.0,0
139,51.51957,5.858428,14.6,0.0,11.07,22.05,14.7,14.7,11.07,22.05,13905,2020-09-29 13:44:02,2020-09-29 15:44:02.430,18,0,0,16.4,51.519486,5.85814,6.0,9.3,0.0,-23.4,-4.8,62.1,0,1,0,91,100,-7712,3164,16400,3031.5,11,WP,1,0,0,0,0,0,0,1601387042429,4120,4092,4088,4104,0,0,27,,,,,,,0,0,0,234.0,-48.0,621.0,1.0,0.0,378.0,14,146.0,110.68,220.55,60.0,93.0,0.0,0,,,100,100,0,2,0,0,0,1,0,,,,,0.0,0.0,0
140,51.519576,5.858442,14.6,0.0,11.29,23.19,14.7,14.7,11.29,23.19,14005,2020-09-29 13:44:02,2020-09-29 15:44:02.530,18,0,0,16.4,51.519486,5.85814,6.1,9.5,0.0,-23.6,-4.3,61.9,0,1,0,91,100,-7712,3164,16400,3031.5,11,WP,1,0,0,0,0,0,0,1601387042529,4120,4092,4088,4104,0,0,27,,,,,,,0,0,0,236.0,-43.0,619.0,1.0,0.0,378.0,14,146.0,112.9,231.88,61.0,95.0,0.0,0,,,100,100,0,2,0,0,0,1,0,,,,,0.0,0.0,0
141,51.519582,5.858457,14.6,0.0,11.51,24.45,14.7,14.7,11.51,24.45,14104,2020-09-29 13:44:02,2020-09-29 15:44:02.629,18,0,0,16.4,51.519486,5.85814,6.2,9.7,0.0,-23.8,-4.1,61.8,0,1,0,91,100,-7712,3164,16400,3031.5,11,WP,1,0,0,0,0,0,0,1601387042628,4120,4092,4088,4104,0,0,27,,,,,,,0,0,0,238.0,-41.0,618.0,1.0,0.0,377.0,14,146.0,115.12,244.49,62.0,97.0,0.0,0,,,100,100,0,2,0,0,0,1,0,,,,,0.0,0.0,0
142,51.519587,5.858472,14.6,0.0,11.73,25.64,14.7,14.7,11.73,25.64,14202,2020-09-29 13:44:02,2020-09-29 15:44:02.726,18,0,0,16.4,51.519486,5.85814,6.3,9.9,0.0,-23.8,-4.5,61.7,0,1,0,91,100,-7712,3164,16400,3031.5,11,WP,1,0,0,0,0,0,0,1601387042726,4120,4092,4088,4104,0,0,27,,,,,,,0,0,0,238.0,-45.0,617.0,1.0,0.0,377.0,14,146.0,117.35,256.43,63.0,99.0,0.0,0,,,100,100,0,2,0,0,0,1,0,,,,,0.0,0.0,0
143,51.519593,5.858485,14.6,0.0,12.01,26.77,14.7,14.7,12.01,26.77,14301,2020-09-29 13:44:02,2020-09-29 15:44:02.826,18,0,0,16.4,51.519486,5.85814,6.5,10.1,0.0,-24.1,-4.6,61.8,0,1,0,91,100,-7712,3164,16400,3031.5,11,WP,1,0,0,0,0,0,0,1601387042825,4120,4092,4088,4104,0,0,27,,,,,,,0,0,0,241.0,-46.0,618.0,1.0,0.0,376.0,14,146.0,120.11,267.75,65.0,101.0,0.0,0,,,100,100,0,2,0,0,0,1,0,,,,,0.0,0.0,0
144,51.519599,5.858501,14.6,0.0,12.23,28.01,14.7,14.7,12.23,28.01,14404,2020-09-29 13:44:02,2020-09-29 15:44:02.928,18,0,0,16.4,51.519486,5.85814,6.6,10.3,0.0,-22.7,-3.9,61.8,0,1,0,91,100,-7712,3164,16400,3031.5,11,WP,1,0,0,0,0,0,0,1601387042928,4120,4092,4088,4104,0,0,27,,,,,,,0,0,0,227.0,-39.0,618.0,1.0,0.0,376.0,14,146.0,122.33,280.09,66.0,103.0,0.0,0,,,100,100,0,2,0,0,0,1,0,,,,,0.0,0.0,0
145,51.519605,5.858516,14.6,0.0,12.46,29.28,14.7,14.7,12.46,29.28,14504,2020-09-29 13:44:03,2020-09-29 15:44:03.029,18,0,0,16.4,51.519486,5.85814,6.7,10.5,0.0,-19.2,-3.7,61.5,0,1,0,91,100,-7712,3164,16400,3031.5,11,WP,1,0,0,0,0,0,0,1601387043028,4120,4092,4088,4104,0,0,27,,,,,,,0,0,0,192.0,-37.0,615.0,1.0,0.0,376.0,14,146.0,124.56,292.8,67.0,105.0,0.0,0,,,100,100,0,2,0,0,0,1,0,,,,,0.0,0.0,0
146,51.519611,5.858532,14.6,0.0,12.54,30.56,14.7,14.7,12.54,30.56,14605,2020-09-29 13:44:03,2020-09-29 15:44:03.129,18,0,0,16.4,51.519486,5.85814,6.7,10.6,-0.1,-15.3,-3.2,61.4,0,1,0,91,100,-7712,3164,16400,3031.5,11,WP,1,0,0,0,0,0,0,1601387043129,4120,4092,4088,4104,0,0,27,,,,,,,0,0,0,153.0,-32.0,614.0,1.0,0.0,375.0,14,146.0,125.4,305.57,67.0,106.0,-1.0,0,,,100,100,0,2,0,0,0,1,0,,,,,0.0,0.0,0
147,51.519618,5.858548,14.6,0.0,12.62,31.86,14.7,14.7,12.62,31.86,14755,2020-09-29 13:44:03,2020-09-29 15:44:03.280,18,0,0,16.4,51.519486,5.85814,6.7,10.7,-0.1,-12.5,-3.2,61.0,0,1,0,91,100,-7712,3164,16400,3031.5,11,WP,1,0,0,0,0,0,0,1601387043279,4120,4092,4088,4104,0,0,27,,,,,,,0,0,0,125.0,-32.0,610.0,1.0,0.0,375.0,14,146.0,126.25,318.6,67.0,107.0,-1.0,0,,,100,100,0,2,0,0,0,1,0,,,,,0.0,0.0,0
148,51.519624,5.858564,14.6,0.0,12.54,33.15,14.7,14.7,12.62,33.15,14805,2020-09-29 13:44:03,2020-09-29 15:44:03.330,18,0,0,16.4,51.519486,5.85814,6.7,10.6,-0.1,-11.0,-3.1,60.8,0,1,0,91,100,-7712,3164,16400,3031.5,11,WP,1,0,0,0,0,0,0,1601387043329,4120,4092,4088,4104,0,0,27,,,,,,,0,0,0,110.0,-31.0,608.0,1.0,0.0,375.0,14,146.0,125.4,331.54,67.0,106.0,-1.0,0,,,100,100,0,2,0,0,0,1,0,,,,,0.0,0.0,0
149,51.51963,5.858579,14.6,0.0,12.62,34.45,14.7,14.7,12.62,34.45,14906,2020-09-29 13:44:03,2020-09-29 15:44:03.431,18,0,0,16.4,51.519486,5.85814,6.7,10.7,-0.1,-9.6,-2.9,60.7,0,1,0,91,100,-7712,3164,16400,3031.5,11,WP,1,0,0,0,0,0,0,1601387043430,4120,4092,4088,4104,0,0,27,,,,,,,0,0,0,96.0,-29.0,607.0,1.0,0.0,375.0,14,146.0,126.25,344.55,67.0,107.0,-1.0,0,,,100,100,0,2,0,0,0,1,0,,,,,0.0,0.0,0
150,51.519636,5.858595,14.6,0.0,12.54,35.75,14.7,14.7,12.62,35.75,15004,2020-09-29 13:44:03,2020-09-29 15:44:03.529,18,0,0,16.4,51.519486,5.85814,6.7,10.6,-0.1,-8.6,-2.5,60.7,0,1,0,91,100,-7712,3164,16400,3031.5,11,WP,1,0,0,0,0,0,0,1601387043528,4120,4092,4088,4104,0,0,27,,,,,,,0,0,0,86.0,-25.0,607.0,1.0,0.0,375.0,14,146.0,125.4,357.5,67.0,106.0,-1.0,0,,,100,100,0,2,0,0,0,1,0,,,,,0.0,0.0,0
151,51.519643,5.858611,14.5,0.0,12.54,37.06,14.7,14.7,12.62,37.06,15155,2020-09-29 13:44:03,2020-09-29 15:44:03.680,18,0,0,16.4,51.519486,5.85814,6.7,10.6,0.0,-7.7,-2.2,60.6,0,1,0,91,100,-7712,3164,16400,3031.5,11,WP,1,0,0,0,0,0,0,1601387043679,4120,4092,4088,4104,0,0,27,,,,,,,0,0,0,77.0,-22.0,606.0,1.0,0.0,374.0,14,145.0,125.4,370.65,67.0,106.0,0.0,0,,,100,100,0,2,0,0,0,1,0,,,,,0.0,0.0,0
152,51.519649,5.858627,14.5,0.0,12.49,38.36,14.7,14.7,12.62,38.36,15204,2020-09-29 13:44:03,2020-09-29 15:44:03.728,18,0,0,16.4,51.519486,5.85814,6.6,10.6,0.0,-6.9,-1.2,60.6,0,1,0,91,100,-7712,3164,16400,3031.5,11,WP,1,0,0,0,0,0,0,1601387043728,4120,4092,4088,4104,0,0,27,,,,,,,0,0,0,69.0,-12.0,606.0,1.0,0.0,374.0,14,145.0,124.87,383.56,66.0,106.0,0.0,0,,,100,100,0,2,0,0,0,1,0,,,,,0.0,0.0,0
