,latitude,longitude,altitude(m),ultrasonicHeight(m),speed(mps),distance(m),max_altitude(m),max_ascent(m),max_speed(mps),max_distance(m),time(millisecond),datetime(utc),datetime(local),satellites,pressure(Pa),temperature(F),voltage(v),home_latitude,home_longitude,velocityX(mps),velocityY(mps),velocityZ(mps),pitch(deg),roll(deg),yaw(deg),powerlevel,isflying,istakingphoto,remainPowerPercent,remainLifePercent,currentCurrent,currentElectricity,currentVoltage,batteryTemperature,dischargeCount,flightmode,isMotorsOn,isTakingVideo,Rc_elevator,Rc_aileron,Rc_throttle,Rc_rudder,Rc_gyro,timestamp,Battery_Cell1,Battery_Cell2,Battery_Cell3,Battery_Cell4,Battery_Cell5,Battery_Cell6,Dronetype,AppVersion,Planename,FlyControllerSerialNumber,RemoteSerialNumber,BatterySerialNumber,CENTER_BATTERY.productDate,CENTER_BATTERY.serialNo,CENTER_BATTERY.fullCapacity,CENTER_BATTERY.productDateRaw,pitchRaw,rollRaw,yawRaw,gimbalPitchRaw,gimbalRollRaw,gimbalYawRaw,flyState,altitudeRaw,speedRaw,distanceRaw,velocityXRaw,velocityYRaw,velocityZRaw,data_reuse,App_Tip,App_Warning,downlinkSignalQuality,uplinkSignalQuality,transmissionChannel,rcModeSwitch,rcHome,rcPause,rcTransform,rcJoystickMode,appMode,FlyControllerSerialNumber_legacy,RemoteSerialNumber_legacy,BatterySerialNumber_legacy,Battery2SerialNumber,frontAvoidDist,backAvoidDist,isBrakingToAvoid
0,51.519333,5.857853,1.6,1.8,3.9,0.32,1.6,1.6,3.9,0.32,0,2020-09-29 13:55:18,2020-09-29 15:55:18.608,12,0,0,16.666,51.519331,5.85785,0.0,0.0,-3.9,1.0,-2.7,-19.4,0,1,0,99,97,-2206,5603,16666,2941.5,35,GPS,1,0,0,0,660,0,0,1601387718607,0,0,0,0,0,0,23,Litchi_iOS_2.8.0,kcdgc-P4 Professional V2.0,11VKF7U00203L3,0WGUF4F00100N3,0DQAF5N03201UP,,0,5660,0,-10.0,-27.0,-194.0,0.0,0.0,-236.0,6,16.0,39.0,3.21,0.0,0.0,-39.0,0,,,100,100,0,2,0,0,0,0,0,(null),(null),(null),(null),9.6,4.4,0
1,51.519333,5.857853,1.9,2.2,4.2,0.33,1.9,1.9,4.2,0.33,117,2020-09-29 13:55:18,2020-09-29 15:55:18.725,12,0,0,16.666,51.519331,5.85785,0.0,0.0,-4.2,1.4,-2.4,-18.8,0,1,0,99,97,-2206,5603,16666,2941.5,35,GPS,1,0,0,0,660,0,0,1601387718724,0,0,0,0,0,0,23,,,,,,,0,0,0,-14.0,-24.0,-188.0,0.0,0.0,-233.0,6,19.0,42.0,3.32,0.0,0.0,-42.0,0,,,100,100,0,2,0,0,0,0,0,,,,,9.6,4.4,0
2,51.519333,5.857853,2.3,2.6,4.5,0.31,2.3,2.3,4.5,0.33,197,2020-09-29 13:55:18,2020-09-29 15:55:18.805,12,0,0,16.218,51.519331,5.85785,0.0,0.0,-4.5,1.3,-1.6,-18.3,0,1,0,99,97,-10000,5603,16218,2941.5,35,GPS,1,0,0,0,660,0,0,1601387718804,0,0,0,0,0,0,23,,,,,,,0,0,0,-13.0,-16.0,-183.0,0.0,0.0,-228.0,6,23.0,45.0,3.13,0.0,0.0,-45.0,0,,,100,100,0,2,0,0,0,0,0,,,,,9.6,4.4,0
3,51.519333,5.857853,2.8,3.1,4.8,0.32,2.8,2.8,4.8,0.33,316,2020-09-29 13:55:18,2020-09-29 15:55:18.924,12,0,0,16.218,51.519331,5.85785,0.0,0.0,-4.8,1.3,-0.9,-17.9,0,1,0,99,97,-10000,5603,16218,2941.5,35,GPS,1,0,0,0,660,0,0,1601387718923,0,0,0,0,0,0,23,,,,,,,0,0,0,-13.0,-9.0,-179.0,0.0,0.0,-224.0,6,28.0,48.0,3.18,0.0,0.0,-48.0,0,,,100,100,0,2,0,0,0,0,0,,,,,10.2,4.4,0
4,51.519333,5.857854,3.3,3.6,4.9,0.33,3.3,3.3,4.9,0.33,407,2020-09-29 13:55:19,2020-09-29 15:55:19.014,12,0,0,16.218,51.519331,5.85785,0.0,0.0,-4.9,1.1,-0.7,-17.5,0,1,0,99,97,-10000,5603,16218,2941.5,35,GPS,1,0,0,0,660,0,0,1601387719014,0,0,0,0,0,0,23,,,,,,,0,0,0,-11.0,-7.0,-175.0,0.0,0.0,-220.0,6,33.0,49.0,3.26,0.0,0.0,-49.0,0,,,100,100,0,2,0,0,0,0,0,,,,,0.0,4.5,0
5,51.519333,5.857854,3.8,4.1,5.0,0.34,3.8,3.8,5.0,0.34,507,2020-09-29 13:55:19,2020-09-29 15:55:19.115,12,0,0,16.218,51.519331,5.85785,0.1,0.0,-5.0,1.0,-1.2,-17.1,0,1,0,99,97,-10000,5603,16218,2941.5,35,GPS,1,0,0,0,660,0,0,1601387719114,0,0,0,0,0,0,23,,,,,,,0,0,0,-10.0,-12.0,-171.0,0.0,0.0,-215.0,6,38.0,50.01,3.4,1.0,0.0,-50.0,0,,,100,100,0,2,0,0,0,0,0,,,,,0.0,4.7,0
6,51.519333,5.857854,4.4,4.6,5.1,0.35,4.4,4.4,5.1,0.35,614,2020-09-29 13:55:19,2020-09-29 15:55:19.222,12,0,0,16.218,51.519331,5.85785,0.1,0.1,-5.1,1.6,-1.9,-16.8,0,1,0,99,97,-10000,5603,16218,2941.5,35,GPS,1,0,0,0,660,0,0,1601387719221,0,0,0,0,0,0,23,,,,,,,0,0,0,-16.0,-19.0,-168.0,0.0,0.0,-211.0,6,44.0,51.02,3.53,1.0,1.0,-51.0,0,,,100,100,0,2,0,0,0,0,0,,,,,0.0,4.8,0
7,51.519333,5.857855,4.9,5.1,5.1,0.39,4.9,4.9,5.1,0.39,714,2020-09-29 13:55:19,2020-09-29 15:55:19.322,12,0,0,16.218,51.519331,5.85785,0.1,0.0,-5.1,2.2,-2.5,-16.5,0,1,0,99,97,-10000,5603,16218,2941.5,35,GPS,1,0,0,0,660,0,0,1601387719321,0,0,0,0,0,0,23,,,,,,,0,0,0,-22.0,-25.0,-165.0,0.0,0.0,-207.0,6,49.0,51.01,3.86,1.0,0.0,-51.0,0,,,100,100,0,2,0,0,0,0,0,,,,,0.0,5.3,0
8,51.519333,5.857855,5.4,5.6,5.1,0.42,5.4,5.4,5.1,0.42,817,2020-09-29 13:55:19,2020-09-29 15:55:19.424,12,0,0,16.218,51.519331,5.85785,0.1,0.1,-5.1,2.5,-2.7,-16.4,0,1,0,99,97,-10000,5603,16218,2941.5,35,GPS,1,0,0,0,660,0,0,1601387719424,0,0,0,0,0,0,23,,,,,,,0,0,0,-25.0,-27.0,-164.0,0.0,0.0,-203.0,6,54.0,51.02,4.19,1.0,1.0,-51.0,0,,,100,100,0,2,0,0,0,0,0,,,,,0.0,7.0,0
9,51.519333,5.857856,5.9,6.1,5.1,0.45,5.9,5.9,5.1,0.45,916,2020-09-29 13:55:19,2020-09-29 15:55:19.524,12,0,0,16.218,51.519331,5.85785,0.1,0.1,-5.1,2.4,-2.9,-16.4,0,1,0,99,97,-10000,5603,16218,2941.5,35,GPS,1,0,0,0,660,0,0,1601387719523,0,0,0,0,0,0,23,,,,,,,0,0,0,-24.0,-29.0,-164.0,0.0,0.0,-203.0,6,59.0,51.02,4.53,1.0,1.0,-51.0,0,,,100,100,0,2,0,0,0,0,0,,,,,0.0,9.8,0
10,51.519333,5.857856,6.5,6.7,5.1,0.49,6.5,6.5,5.1,0.49,1005,2020-09-29 13:55:19,2020-09-29 15:55:19.613,12,0,0,16.218,51.519331,5.85785,0.1,0.1,-5.1,2.4,-3.3,-16.4,0,1,0,99,97,-10000,5603,16218,2941.5,35,GPS,1,0,0,0,660,0,0,1601387719612,0,0,0,0,0,0,23,,,,,,,0,0,0,-24.0,-33.0,-164.0,0.0,0.0,-199.0,6,65.0,51.02,4.86,1.0,1.0,-51.0,0,,,100,100,0,2,0,0,0,0,0,,,,,0.0,10.7,0
11,51.519333,5.857857,7.0,7.2,5.0,0.53,7.0,7.0,5.1,0.53,1119,2020-09-29 13:55:19,2020-09-29 15:55:19.727,12,0,0,16.218,51.519331,5.85785,0.0,0.1,-5.0,2.4,-3.4,-16.4,0,1,0,99,97,-10000,5603,16218,2941.5,35,GPS,1,0,0,0,660,0,0,1601387719726,0,0,0,0,0,0,23,,,,,,,0,0,0,-24.0,-34.0,-164.0,0.0,0.0,-196.0,6,70.0,50.01,5.26,0.0,1.0,-50.0,0,,,100,100,0,2,0,0,0,0,0,,,,,0.0,12.2,0
12,51.519333,5.857857,7.5,7.7,5.0,0.56,7.5,7.5,5.1,0.56,1200,2020-09-29 13:55:19,2020-09-29 15:55:19.807,12,0,0,15.849,51.519331,5.85785,0.0,0.1,-5.0,2.7,-3.4,-16.5,0,1,0,99,97,-21176,5603,15849,2941.5,35,GPS,1,0,0,0,660,0,0,1601387719807,0,0,0,0,0,0,23,,,,,,,0,0,0,-27.0,-34.0,-165.0,0.0,0.0,-193.0,6,75.0,50.01,5.61,0.0,1.0,-50.0,0,,,100,100,0,2,0,0,0,0,0,,,,,0.0,14.2,0
13,51.519333,5.857858,8.0,8.2,5.0,0.59,8.0,8.0,5.1,0.59,1317,2020-09-29 13:55:19,2020-09-29 15:55:19.924,12,0,0,15.849,51.519331,5.85785,0.0,0.2,-5.0,2.3,-3.6,-16.5,0,1,0,99,97,-21176,5603,15849,2941.5,35,GPS,1,0,0,0,660,0,0,1601387719924,0,0,0,0,0,0,23,,,,,,,0,0,0,-23.0,-36.0,-165.0,0.0,0.0,-191.0,6,80.0,50.04,5.89,0.0,2.0,-50.0,0,,,100,100,0,2,0,0,0,0,0,,,,,0.0,0.0,0
14,51.519333,5.857858,8.5,8.7,5.0,0.61,8.5,8.5,5.1,0.61,1408,2020-09-29 13:55:20,2020-09-29 15:55:20.015,12,0,0,15.849,51.519331,5.85785,0.0,0.2,-5.0,1.7,-3.9,-16.5,0,1,0,99,97,-21176,5603,15849,2941.5,35,GPS,1,0,0,0,660,0,0,1601387720015,0,0,0,0,0,0,23,,,,,,,0,0,0,-17.0,-39.0,-165.0,0.0,0.0,-189.0,6,85.0,50.04,6.14,0.0,2.0,-50.0,0,,,100,100,0,2,0,0,0,0,0,,,,,0.0,0.0,0
15,51.519333,5.857859,8.9,9.2,4.9,0.64,8.9,8.9,5.1,0.64,1507,2020-09-29 13:55:20,2020-09-29 15:55:20.115,12,0,0,15.849,51.519331,5.85785,0.0,0.2,-4.9,0.6,-4.2,-16.5,0,1,0,99,97,-21176,5603,15849,2941.5,35,GPS,1,0,0,0,660,0,0,1601387720114,0,0,0,0,0,0,23,,,,,,,0,0,0,-6.0,-42.0,-165.0,0.0,0.0,-188.0,6,89.0,49.04,6.45,0.0,2.0,-49.0,0,,,100,100,0,2,0,0,0,0,0,,,,,0.0,0.0,0
16,51.519333,5.857859,9.4,9.7,4.9,0.67,9.4,9.4,5.1,0.67,1603,2020-09-29 13:55:20,2020-09-29 15:55:20.211,12,0,0,15.849,51.519331,5.85785,0.0,0.1,-4.9,0.3,-4.5,-16.5,0,1,0,99,97,-21176,5603,15849,2941.5,35,GPS,1,0,0,0,660,0,0,1601387720210,0,0,0,0,0,0,23,,,,,,,0,0,0,-3.0,-45.0,-165.0,0.0,0.0,-187.0,6,94.0,49.01,6.67,0.0,1.0,-49.0,0,,,100,100,0,2,0,0,0,0,0,,,,,0.0,0.0,0
17,51.519333,5.85786,9.9,10.1,4.9,0.69,9.9,9.9,5.1,0.69,1704,2020-09-29 13:55:20,2020-09-29 15:55:20.311,12,0,0,15.849,51.519331,5.85785,0.0,0.1,-4.9,0.5,-4.6,-16.5,0,1,0,99,97,-21176,5603,15849,2941.5,35,GPS,1,0,0,0,660,0,0,1601387720311,0,0,0,0,0,0,23,,,,,,,0,0,0,-5.0,-46.0,-165.0,0.0,0.0,-185.0,6,99.0,49.01,6.86,0.0,1.0,-49.0,0,,,100,100,0,2,0,0,0,0,0,,,,,0.0,0.0,0
18,51.519333,5.85786,10.4,10.6,4.9,0.7,10.4,10.4,5.1,0.7,1800,2020-09-29 13:55:20,2020-09-29 15:55:20.407,12,0,0,15.849,51.519331,5.85785,0.0,0.1,-4.9,0.6,-4.4,-16.5,0,1,0,99,97,-21176,5603,15849,2941.5,35,GPS,1,0,0,0,660,0,0,1601387720407,0,0,0,0,0,0,23,,,,,,,0,0,0,-6.0,-44.0,-165.0,0.0,0.0,-184.0,6,104.0,49.01,7.01,0.0,1.0,-49.0,0,,,100,100,0,2,0,0,0,0,0,,,,,0.0,0.0,0
19,51.519333,5.85786,10.8,11.1,4.8,0.72,10.8,10.8,5.1,0.72,1906,2020-09-29 13:55:20,2020-09-29 15:55:20.514,12,0,0,15.849,51.519331,5.85785,0.0,0.0,-4.8,0.9,-4.2,-16.5,0,1,0,99,97,-21176,5603,15849,2941.5,35,GPS,1,0,0,0,519,0,0,1601387720513,0,0,0,0,0,0,23,,,,,,,0,0,0,-9.0,-42.0,-165.0,0.0,0.0,-183.0,6,108.0,48.0,7.17,0.0,0.0,-48.0,0,,,100,100,0,2,0,0,0,0,0,,,,,0.0,0.0,0
20,51.519333,5.85786,11.3,11.6,4.8,0.73,11.3,11.3,5.1,0.73,2003,2020-09-29 13:55:20,2020-09-29 15:55:20.611,12,0,0,15.849,51.519331,5.85785,0.0,0.0,-4.8,1.7,-4.0,-16.6,0,1,0,99,97,-21176,5603,15849,2941.5,35,GPS,1,0,0,0,0,0,0,1601387720610,0,0,0,0,0,0,23,,,,,,,0,0,0,-17.0,-40.0,-166.0,0.0,0.0,-182.0,6,113.0,48.0,7.26,0.0,0.0,-48.0,0,,,100,100,0,2,0,0,0,0,0,,,,,0.0,0.0,0
21,51.519333,5.85786,11.8,12.0,4.4,0.73,11.8,11.8,5.1,0.73,2105,2020-09-29 13:55:20,2020-09-29 15:55:20.713,12,0,0,15.849,51.519331,5.85785,0.0,0.0,-4.4,1.6,-4.4,-16.7,0,1,0,99,97,-21176,5603,15849,2941.5,35,GPS,1,0,0,0,0,0,0,1601387720712,0,0,0,0,0,0,23,,,,,,,0,0,0,-16.0,-44.0,-167.0,0.0,0.0,-182.0,6,118.0,44.0,7.29,0.0,0.0,-44.0,0,,,100,100,0,2,0,0,0,0,0,,,,,0.0,0.0,0
22,51.519333,5.85786,12.2,12.4,3.8,0.73,12.2,12.2,5.1,0.73,2207,2020-09-29 13:55:20,2020-09-29 15:55:20.815,12,0,0,15.81,51.519331,5.85785,0.0,0.0,-3.8,1.1,-4.9,-16.8,0,1,0,99,97,-21176,5603,15810,2941.5,35,GPS,1,0,0,0,0,0,0,1601387720814,0,0,0,0,0,0,23,,,,,,,0,0,0,-11.0,-49.0,-168.0,0.0,0.0,-181.0,6,122.0,38.0,7.33,0.0,0.0,-38.0,0,,,100,100,0,2,0,0,0,0,0,,,,,0.0,0.0,0
23,51.519333,5.85786,12.5,12.8,3.1,0.74,12.5,12.5,5.1,0.74,2304,2020-09-29 13:55:20,2020-09-29 15:55:20.912,12,0,0,15.81,51.519331,5.85785,0.0,0.1,-3.1,0.8,-5.3,-16.9,0,1,0,99,97,-21176,5603,15810,2941.5,35,GPS,1,0,0,0,0,0,0,1601387720911,0,0,0,0,0,0,23,,,,,,,0,0,0,-8.0,-53.0,-169.0,0.0,0.0,-181.0,6,125.0,31.02,7.36,0.0,1.0,-31.0,0,,,100,100,0,2,0,0,0,0,0,,,,,0.0,0.0,0
24,51.519333,5.857861,12.8,13.1,2.5,0.75,12.8,12.8,5.1,0.75,2408,2020-09-29 13:55:21,2020-09-29 15:55:21.015,12,0,0,15.81,51.519331,5.85785,0.0,0.1,-2.5,0.2,-5.7,-16.9,0,1,0,99,97,-21176,5603,15810,2941.5,35,GPS,1,0,0,0,0,0,0,1601387721015,0,0,0,0,0,0,23,,,,,,,0,0,0,-2.0,-57.0,-169.0,0.0,0.0,-180.0,6,128.0,25.02,7.46,0.0,1.0,-25.0,0,,,100,100,0,2,0,0,0,0,0,,,,,0.0,0.0,0
25,51.519333,5.857861,13.0,13.3,1.7,0.76,13.0,13.0,5.1,0.76,2508,2020-09-29 13:55:21,2020-09-29 15:55:21.115,12,0,0,15.81,51.519331,5.85785,0.0,0.0,-1.7,-0.1,-5.9,-16.9,0,1,0,99,97,-21176,5603,15810,2941.5,35,GPS,1,0,0,0,0,0,0,1601387721115,0,0,0,0,0,0,23,,,,,,,0,0,0,1.0,-59.0,-169.0,0.0,0.0,-180.0,6,130.0,17.0,7.59,0.0,0.0,-17.0,0,,,100,100,0,2,0,0,0,0,0,,,,,0.0,0.0,0
26,51.519333,5.857861,13.2,13.4,1.1,0.77,13.2,13.2,5.1,0.77,2600,2020-09-29 13:55:21,2020-09-29 15:55:21.208,12,0,0,15.81,51.519331,5.85785,0.0,0.1,-1.1,0.2,-5.9,-16.9,0,1,0,99,97,-21176,5603,15810,2941.5,35,GPS,1,0,0,0,0,0,0,1601387721207,0,0,0,0,0,0,23,,,,,,,0,0,0,-2.0,-59.0,-169.0,0.0,0.0,-180.0,6,132.0,11.05,7.71,0.0,1.0,-11.0,0,,,100,100,0,2,0,0,0,0,0,,,,,0.0,0.0,0
27,51.519333,5.857861,13.3,13.5,0.73,0.77,13.3,13.3,5.1,0.77,2700,2020-09-29 13:55:21,2020-09-29 15:55:21.308,12,0,0,15.81,51.519331,5.85785,0.0,0.2,-0.7,0.2,-5.6,-16.9,0,1,0,99,97,-21176,5603,15810,2941.5,35,GPS,1,0,0,0,0,0,0,1601387721307,0,0,0,0,0,0,23,,,,,,,0,0,0,-2.0,-56.0,-169.0,0.0,0.0,-179.0,6,133.0,7.28,7.68,0.0,2.0,-7.0,0,,,100,100,0,2,0,0,0,0,0,,,,,0.0,0.0,0
28,51.519333,5.857861,13.3,13.5,0.41,0.77,13.3,13.3,5.1,0.77,2800,2020-09-29 13:55:21,2020-09-29 15:55:21.408,12,0,0,15.81,51.519331,5.85785,0.0,0.1,-0.4,0.2,-6.4,-16.8,0,1,0,99,97,-21176,5603,15810,2941.5,35,GPS,1,0,0,0,0,0,0,1601387721407,0,0,0,0,0,0,23,,,,,,,0,0,0,-2.0,-64.0,-168.0,0.0,0.0,-179.0,6,133.0,4.12,7.71,0.0,1.0,-4.0,0,,,100,100,0,2,0,0,0,0,0,,,,,0.0,0.0,0
29,51.519334,5.857861,13.4,13.5,0.22,0.78,13.4,13.4,5.1,0.78,2907,2020-09-29 13:55:21,2020-09-29 15:55:21.515,12,0,0,15.81,51.519331,5.85785,0.0,0.1,-0.2,0.1,-7.1,-16.7,0,1,0,99,97,-21176,5603,15810,2941.5,35,GPS,1,0,0,0,0,0,0,1601387721514,0,0,0,0,0,0,23,,,,,,,0,0,0,-1.0,-71.0,-167.0,0.0,0.0,-179.0,6,134.0,2.24,7.77,0.0,1.0,-2.0,0,,,100,100,0,2,0,0,0,0,0,,,,,0.0,0.0,0
30,51.519334,5.857861,13.4,13.6,0.1,0.78,13.4,13.4,5.1,0.78,3015,2020-09-29 13:55:21,2020-09-29 15:55:21.623,12,0,0,15.81,51.519331,5.85785,0.0,0.1,0.0,0.5,-7.4,-16.6,0,1,0,99,97,-21176,5603,15810,2941.5,35,GPS,1,0,0,0,0,0,0,1601387721622,0,0,0,0,0,0,23,,,,,,,0,0,0,-5.0,-74.0,-166.0,0.0,0.0,-178.0,6,134.0,1.0,7.79,0.0,1.0,0.0,0,,,100,100,0,2,0,0,0,0,0,,,,,0.0,0.0,0
31,51.519334,5.85786,13.4,0.0,0.22,0.77,13.4,13.4,5.1,0.78,3100,2020-09-29 13:55:21,2020-09-29 15:55:21.707,12,0,0,15.81,51.519331,5.85785,-0.1,0.2,0.0,0.5,-7.3,-16.6,0,1,0,99,97,-21176,5603,15810,2941.5,35,GPS,1,0,0,0,0,0,0,1601387721707,0,0,0,0,0,0,23,,,,,,,0,0,0,-5.0,-73.0,-166.0,0.0,0.0,-178.0,6,134.0,2.24,7.68,-1.0,2.0,0.0,0,,,100,100,0,2,0,0,0,0,0,,,,,0.0,0.0,0
32,51.519334,5.85786,13.4,0.0,0.14,0.75,13.4,13.4,5.1,0.78,3197,2020-09-29 13:55:21,2020-09-29 15:55:21.805,12,0,0,15.819,51.519331,5.85785,-0.1,0.1,0.0,-0.5,-7.5,-16.5,0,1,0,99,97,-14634,5546,15819,2941.5,35,GPS,1,0,0,0,0,0,0,1601387721804,0,0,0,0,0,0,23,,,,,,,0,0,0,5.0,-75.0,-165.0,0.0,0.0,-178.0,6,134.0,1.41,7.47,-1.0,1.0,0.0,0,,,100,100,0,2,0,0,0,0,0,,,,,0.0,0.0,0
33,51.519334,5.857859,13.4,0.0,0.22,0.72,13.4,13.4,5.1,0.78,3299,2020-09-29 13:55:21,2020-09-29 15:55:21.907,12,0,0,15.819,51.519331,5.85785,-0.2,0.1,0.0,-1.3,-7.5,-16.4,0,1,0,99,97,-14634,5546,15819,2941.5,35,GPS,1,0,0,0,0,0,0,1601387721906,0,0,0,0,0,0,23,,,,,,,0,0,0,13.0,-75.0,-164.0,0.0,0.0,-177.0,6,134.0,2.24,7.23,-2.0,1.0,0.0,0,,,100,100,0,2,0,0,0,0,0,,,,,0.0,0.0,0
34,51.519334,5.857859,13.4,0.0,0.1,0.7,13.4,13.4,5.1,0.78,3404,2020-09-29 13:55:22,2020-09-29 15:55:22.011,12,0,0,15.819,51.519331,5.85785,-0.1,0.0,0.0,-1.9,-7.5,-16.5,0,1,0,99,97,-14634,5546,15819,2941.5,35,GPS,1,0,0,0,0,0,0,1601387722011,0,0,0,0,0,0,23,,,,,,,0,0,0,19.0,-75.0,-165.0,0.0,0.0,-177.0,6,134.0,1.0,6.97,-1.0,0.0,0.0,0,,,100,100,0,2,0,0,0,0,0,,,,,0.0,0.0,0
35,51.519334,5.857859,13.4,0.0,0.1,0.67,13.4,13.4,5.1,0.78,3515,2020-09-29 13:55:22,2020-09-29 15:55:22.123,12,0,0,15.819,51.519331,5.85785,-0.1,0.0,0.0,-2.1,-7.2,-16.5,0,1,0,99,97,-14634,5546,15819,2941.5,35,GPS,1,0,0,0,0,0,0,1601387722122,0,0,0,0,0,0,23,,,,,,,0,0,0,21.0,-72.0,-165.0,0.0,0.0,-177.0,6,134.0,1.0,6.75,-1.0,0.0,0.0,0,,,100,100,0,2,0,0,0,0,0,,,,,0.0,0.0,0
36,51.519333,5.857859,13.4,0.0,0.1,0.66,13.4,13.4,5.1,0.78,3606,2020-09-29 13:55:22,2020-09-29 15:55:22.214,12,0,0,15.819,51.519331,5.85785,-0.1,0.0,0.0,-2.5,-7.0,-16.5,0,1,0,99,97,-14634,5546,15819,2941.5,35,GPS,1,0,0,0,0,0,0,1601387722213,0,0,0,0,0,0,23,,,,,,,0,0,0,25.0,-70.0,-165.0,0.0,0.0,-177.0,6,134.0,1.0,6.55,-1.0,0.0,0.0,0,,,100,100,0,2,0,0,0,0,0,,,,,0.0,0.0,0
37,51.519333,5.857859,13.4,0.0,0.1,0.63,13.4,13.4,5.1,0.78,3704,2020-09-29 13:55:22,2020-09-29 15:55:22.311,12,0,0,15.819,51.519331,5.85785,0.0,-0.1,0.0,-2.4,-6.6,-16.5,0,1,0,99,97,-14634,5546,15819,2941.5,35,GPS,1,0,0,0,0,0,0,1601387722311,3949,3950,3983,3978,0,0,23,,,,,,,0,0,0,24.0,-66.0,-165.0,0.0,0.0,-176.0,6,134.0,1.0,6.3,0.0,-1.0,0.0,0,,,100,100,0,2,0,0,0,0,0,,,,,0.0,0.0,0
38,51.519333,5.857858,13.4,0.0,0.2,0.6,13.4,13.4,5.1,0.78,3804,2020-09-29 13:55:22,2020-09-29 15:55:22.412,12,0,0,15.819,51.519331,5.85785,0.0,-0.2,0.0,-1.7,-5.9,-16.2,0,1,0,99,97,-14634,5546,15819,2941.5,35,GPS,1,0,0,0,0,0,0,1601387722411,3949,3950,3983,3978,0,0,23,,,,,,,0,0,0,17.0,-59.0,-162.0,0.0,0.0,-176.0,6,134.0,2.0,6.02,0.0,-2.0,0.0,0,,,100,100,0,2,0,0,0,0,0,,,,,0.0,0.0,0
39,51.519333,5.857858,13.4,0.0,0.3,0.57,13.4,13.4,5.1,0.78,3911,2020-09-29 13:55:22,2020-09-29 15:55:22.518,12,0,0,15.819,51.519331,5.85785,0.0,-0.3,0.0,-0.9,-5.2,-15.5,0,1,0,99,97,-14634,5546,15819,2941.5,35,GPS,1,0,0,0,0,0,0,1601387722518,3949,3950,3983,3978,0,0,23,,,,,,,0,0,0,9.0,-52.0,-155.0,0.0,0.0,-176.0,6,134.0,3.0,5.69,0.0,-3.0,0.0,0,,,100,100,0,2,0,0,0,0,0,,,,,0.0,0.0,0
40,51.519334,5.857857,13.5,0.0,0.22,0.6,13.5,13.5,5.1,0.78,4005,2020-09-29 13:55:22,2020-09-29 15:55:22.612,12,0,0,15.819,51.519331,5.85785,0.1,-0.2,0.0,0.1,-4.6,-15.3,0,1,0,99,97,-14634,5546,15819,2941.5,35,GPS,1,0,0,0,0,0,0,1601387722612,3949,3950,3983,3978,0,0,23,,,,,,,0,0,0,-1.0,-46.0,-153.0,0.0,0.0,-176.0,6,135.0,2.24,5.98,1.0,-2.0,0.0,0,,,100,100,0,2,0,0,0,0,0,,,,,0.0,0.0,0
41,51.519334,5.857856,13.5,0.0,0.32,0.58,13.5,13.5,5.1,0.78,4104,2020-09-29 13:55:22,2020-09-29 15:55:22.711,12,0,0,15.819,51.519331,5.85785,0.1,-0.3,0.0,1.7,-4.0,-15.3,0,1,0,99,97,-14634,5546,15819,2941.5,35,GPS,1,0,0,0,0,0,0,1601387722711,3949,3950,3983,3978,0,0,23,,,,,,,0,0,0,-17.0,-40.0,-153.0,0.0,0.0,-175.0,6,135.0,3.16,5.76,1.0,-3.0,0.0,0,,,100,100,0,2,0,0,0,0,0,,,,,0.0,0.0,0
42,51.519335,5.857856,13.5,0.0,0.32,0.56,13.5,13.5,5.1,0.78,4199,2020-09-29 13:55:22,2020-09-29 15:55:22.807,12,0,0,16.645,51.519331,5.85785,0.1,-0.3,0.0,2.1,-3.7,-15.4,0,1,0,98,97,-9092,5546,16645,2951.5,35,GPS,1,0,0,0,0,0,0,1601387722806,3949,3950,3983,3978,0,0,23,,,,,,,0,0,0,-21.0,-37.0,-154.0,0.0,0.0,-173.0,6,135.0,3.16,5.59,1.0,-3.0,0.0,0,,,100,100,0,2,0,0,0,0,0,,,,,0.0,0.0,0
43,51.519335,5.857855,13.5,0.0,0.3,0.54,13.5,13.5,5.1,0.78,4295,2020-09-29 13:55:22,2020-09-29 15:55:22.902,12,0,0,16.645,51.519331,5.85785,0.0,-0.3,0.0,2.1,-3.1,-15.5,0,1,0,98,97,-9092,5546,16645,2951.5,35,GPS,1,0,0,0,0,0,0,1601387722902,3949,3950,3983,3978,0,0,23,,,,,,,0,0,0,-21.0,-31.0,-155.0,0.0,0.0,-172.0,6,135.0,3.0,5.38,0.0,-3.0,0.0,0,,,100,100,0,2,0,0,0,0,0,,,,,0.0,0.0,0
44,51.519335,5.857854,13.5,0.0,0.3,0.49,13.5,13.5,5.1,0.78,4394,2020-09-29 13:55:23,2020-09-29 15:55:23.002,11,0,0,16.645,51.519331,5.85785,0.0,-0.3,0.0,1.8,-2.8,-15.5,0,1,0,98,97,-9092,5546,16645,2951.5,35,GPS,1,0,0,0,0,0,0,1601387723001,3949,3950,3983,3978,0,0,23,,,,,,,0,0,0,-18.0,-28.0,-155.0,0.0,0.0,-171.0,6,135.0,3.0,4.93,0.0,-3.0,0.0,0,,,100,100,0,2,0,0,0,0,0,,,,,0.0,0.0,0
45,51.519335,5.857853,13.5,0.0,0.3,0.47,13.5,13.5,5.1,0.78,4503,2020-09-29 13:55:23,2020-09-29 15:55:23.110,11,0,0,16.645,51.519331,5.85785,0.0,-0.3,0.0,1.5,-1.8,-15.6,0,1,0,98,97,-9092,5546,16645,2951.5,35,GPS,1,0,0,0,0,0,0,1601387723110,3949,3950,3983,3978,0,0,23,,,,,,,0,0,0,-15.0,-18.0,-156.0,0.0,0.0,-170.0,6,135.0,3.0,4.66,0.0,-3.0,0.0,0,,,100,100,0,2,0,0,0,0,0,,,,,0.0,0.0,0
46,51.519335,5.857853,13.5,0.0,0.2,0.44,13.5,13.5,5.1,0.78,4611,2020-09-29 13:55:23,2020-09-29 15:55:23.218,11,0,0,16.645,51.519331,5.85785,0.0,-0.2,0.0,1.1,-1.4,-15.8,0,1,0,98,97,-9092,5546,16645,2951.5,35,GPS,1,0,0,0,0,0,0,1601387723218,3949,3950,3983,3978,0,0,23,,,,,,,0,0,0,-11.0,-14.0,-158.0,0.0,0.0,-170.0,6,135.0,2.0,4.41,0.0,-2.0,0.0,0,,,100,100,0,2,0,0,0,0,0,,,,,0.0,0.0,0
47,51.519335,5.857852,13.6,0.0,0.22,0.42,13.6,13.6,5.1,0.78,4704,2020-09-29 13:55:23,2020-09-29 15:55:23.311,11,0,0,16.645,51.519331,5.85785,-0.1,-0.2,0.0,0.5,-1.6,-15.8,0,1,0,98,97,-9092,5546,16645,2951.5,35,GPS,1,0,0,0,0,0,0,1601387723311,3949,3950,3983,3978,0,0,23,,,,,,,0,0,0,-5.0,-16.0,-158.0,0.0,0.0,-169.0,6,136.0,2.24,4.2,-1.0,-2.0,0.0,0,,,100,100,0,2,0,0,0,0,0,,,,,0.0,0.0,0
48,51.519334,5.857852,13.6,0.0,0.14,0.4,13.6,13.6,5.1,0.78,4804,2020-09-29 13:55:23,2020-09-29 15:55:23.411,12,0,0,16.645,51.519331,5.85785,-0.1,-0.1,0.0,-0.1,-1.7,-15.9,0,1,0,98,97,-9092,5546,16645,2951.5,35,GPS,1,0,0,0,0,0,0,1601387723411,3949,3950,3983,3978,0,0,23,,,,,,,0,0,0,1.0,-17.0,-159.0,0.0,0.0,-169.0,6,136.0,1.41,3.99,-1.0,-1.0,0.0,0,,,100,100,0,2,0,0,0,0,0,,,,,0.0,0.0,0
49,51.519334,5.857852,13.6,0.0,0.1,0.35,13.6,13.6,5.1,0.78,4914,2020-09-29 13:55:23,2020-09-29 15:55:23.522,12,0,0,16.645,51.519331,5.85785,-0.1,0.0,0.0,-0.9,-1.7,-16.0,0,1,0,98,97,-9092,5546,16645,2951.5,35,GPS,1,0,0,0,0,0,0,1601387723521,3949,3950,3983,3978,0,0,23,,,,,,,0,0,0,9.0,-17.0,-160.0,0.0,0.0,-169.0,6,136.0,1.0,3.52,-1.0,0.0,0.0,0,,,100,100,0,2,0,0,0,0,0,,,,,0.0,0.0,0
50,51.519334,5.857852,13.6,0.0,0.1,0.33,13.6,13.6,5.1,0.78,5008,2020-09-29 13:55:23,2020-09-29 15:55:23.615,12,0,0,16.645,51.519331,5.85785,-0.1,0.0,0.0,-1.3,-2.1,-16.0,0,1,0,98,97,-9092,5546,16645,2951.5,35,GPS,1,0,0,0,0,0,0,1601387723615,3949,3950,3983,3978,0,0,23,,,,,,,0,0,0,13.0,-21.0,-160.0,0.0,0.0,-168.0,6,136.0,1.0,3.27,-1.0,0.0,0.0,0,,,100,100,0,2,0,0,0,0,0,,,,,0.0,0.0,0
51,51.519334,5.857852,13.6,0.0,0.1,0.31,13.6,13.6,5.1,0.78,5112,2020-09-29 13:55:23,2020-09-29 15:55:23.719,12,0,0,16.645,51.519331,5.85785,-0.1,0.0,0.0,-1.7,-2.6,-16.0,0,1,0,98,97,-9092,5546,16645,2951.5,35,GPS,1,0,0,0,0,0,0,1601387723719,3949,3950,3983,3978,0,0,23,,,,,,,0,0,0,17.0,-26.0,-160.0,0.0,0.0,-168.0,6,136.0,1.0,3.06,-1.0,0.0,0.0,0,,,100,100,0,2,0,0,0,0,0,,,,,0.0,0.0,0
52,51.519333,5.857852,13.6,0.0,0.1,0.29,13.6,13.6,5.1,0.78,5199,2020-09-29 13:55:23,2020-09-29 15:55:23.806,12,0,0,16.061,51.519331,5.85785,-0.1,0.0,0.0,-2.0,-2.9,-16.0,0,1,0,98,97,-9092,5546,16061,2951.5,35,GPS,1,0,0,0,0,0,0,1601387723806,3949,3950,3983,3978,0,0,23,,,,,,,0,0,0,20.0,-29.0,-160.0,0.0,0.0,-168.0,6,136.0,1.0,2.88,-1.0,0.0,0.0,0,,,100,100,0,2,0,0,0,0,0,,,,,0.0,0.0,0
53,51.519333,5.857852,13.6,0.0,0.1,0.29,13.6,13.6,5.1,0.78,5379,2020-09-29 13:55:23,2020-09-29 15:55:23.986,12,0,0,16.061,51.519331,5.85785,-0.1,0.0,0.0,-2.2,-3.4,-16.1,0,1,0,98,97,-9092,5546,16061,2951.5,35,GPS,1,0,0,0,0,0,0,1601387723986,3949,3950,3983,3978,0,0,23,,,,,,,0,0,0,22.0,-34.0,-161.0,0.0,0.0,-168.0,6,136.0,1.0,2.9,-1.0,0.0,0.0,0,,,100,100,0,2,0,0,0,0,0,,,,,0.0,0.0,0
54,51.519333,5.857852,13.6,0.0,0.1,0.28,13.6,13.6,5.1,0.78,5395,2020-09-29 13:55:24,2020-09-29 15:55:24.003,12,0,0,16.061,51.519331,5.85785,-0.1,0.0,0.0,-2.1,-3.7,-16.1,0,1,0,98,97,-9092,5546,16061,2951.5,35,GPS,1,0,0,0,0,0,0,1601387724002,3949,3950,3983,3978,0,0,23,,,,,,,0,0,0,21.0,-37.0,-161.0,0.0,0.0,-168.0,6,136.0,1.0,2.83,-1.0,0.0,0.0,0,,,100,100,0,2,0,0,0,0,0,,,,,0.0,0.0,0
55,51.519333,5.857852,13.6,0.0,0.1,0.28,13.6,13.6,5.1,0.78,5502,2020-09-29 13:55:24,2020-09-29 15:55:24.109,12,0,0,16.061,51.519331,5.85785,-0.1,0.0,0.0,-2.0,-3.6,-16.2,0,1,0,98,97,-9092,5546,16061,2951.5,35,GPS,1,0,0,0,0,0,0,1601387724109,3949,3950,3983,3978,0,0,23,,,,,,,0,0,0,20.0,-36.0,-162.0,0.0,0.0,-168.0,6,136.0,1.0,2.77,-1.0,0.0,0.0,0,,,100,100,0,2,0,0,0,0,0,,,,,0.0,0.0,0
56,51.519333,5.857852,13.6,0.0,0.0,0.27,13.6,13.6,5.1,0.78,5604,2020-09-29 13:55:24,2020-09-29 15:55:24.212,12,0,0,16.061,51.519331,5.85785,0.0,0.0,0.0,-2.0,-3.5,-16.2,0,1,0,98,97,-9092,5546,16061,2951.5,35,GPS,1,0,0,0,0,0,0,1601387724211,3949,3950,3983,3978,0,0,23,,,,,,,0,0,0,20.0,-35.0,-162.0,0.0,0.0,-168.0,6,136.0,0.0,2.72,0.0,0.0,0.0,0,,,100,100,0,2,0,0,0,0,0,,,,,0.0,0.0,0
57,51.519333,5.857853,13.7,0.0,0.0,0.29,13.7,13.7,5.1,0.78,5692,2020-09-29 13:55:24,2020-09-29 15:55:24.300,12,0,0,16.061,51.519331,5.85785,0.0,0.0,0.0,-1.9,-3.6,-16.3,0,1,0,98,97,-9092,5546,16061,2951.5,35,GPS,1,0,0,0,0,0,0,1601387724299,3949,3950,3983,3978,0,0,23,,,,,,,0,0,0,19.0,-36.0,-163.0,0.0,0.0,-168.0,6,137.0,0.0,2.88,0.0,0.0,0.0,0,,,100,100,0,2,0,0,0,0,0,,,,,0.0,0.0,0
58,51.519333,5.857853,13.7,0.0,0.0,0.28,13.7,13.7,5.1,0.78,5793,2020-09-29 13:55:24,2020-09-29 15:55:24.400,12,0,0,16.061,51.519331,5.85785,0.0,0.0,0.0,-1.7,-3.4,-16.2,0,1,0,98,97,-9092,5546,16061,2951.5,35,GPS,1,0,0,0,0,0,0,1601387724400,3949,3950,3983,3978,0,0,23,,,,,,,0,0,0,17.0,-34.0,-162.0,0.0,0.0,-167.0,6,137.0,0.0,2.84,0.0,0.0,0.0,0,,,100,100,0,2,0,0,0,0,0,,,,,0.0,0.0,0
59,51.519333,5.857852,13.7,0.0,0.1,0.28,13.7,13.7,5.1,0.78,5903,2020-09-29 13:55:24,2020-09-29 15:55:24.511,12,0,0,16.061,51.519331,5.85785,-0.1,0.0,0.0,-1.9,-3.3,-16.2,0,1,0,98,97,-9092,5546,16061,2951.5,35,GPS,1,0,0,0,0,0,0,1601387724510,3949,3950,3983,3978,0,0,23,,,,,,,0,0,0,19.0,-33.0,-162.0,0.0,0.0,-168.0,6,137.0,1.0,2.77,-1.0,0.0,0.0,0,,,100,100,0,2,0,0,0,0,0,,,,,0.0,0.0,0
60,51.519333,5.857852,13.8,0.0,0.1,0.27,13.8,13.8,5.1,0.78,6006,2020-09-29 13:55:24,2020-09-29 15:55:24.613,12,0,0,16.061,51.519331,5.85785,-0.1,0.0,0.0,-2.0,-3.4,-16.3,0,1,0,98,97,-9092,5546,16061,2951.5,35,GPS,1,0,0,0,0,0,0,1601387724613,3949,3950,3983,3978,0,0,23,,,,,,,0,0,0,20.0,-34.0,-163.0,0.0,0.0,-168.0,6,138.0,1.0,2.69,-1.0,0.0,0.0,0,,,100,100,0,2,0,0,0,0,0,,,,,0.0,0.0,0
61,51.519333,5.857852,13.8,0.0,0.1,0.25,13.8,13.8,5.1,0.78,6104,2020-09-29 13:55:24,2020-09-29 15:55:24.712,12,0,0,16.061,51.519331,5.85785,-0.1,0.0,0.0,-2.2,-3.4,-16.3,0,1,0,98,97,-9092,5546,16061,2951.5,35,GPS,1,0,0,0,0,0,0,1601387724711,3949,3950,3983,3978,0,0,23,,,,,,,0,0,0,22.0,-34.0,-163.0,0.0,0.0,-167.0,6,138.0,1.0,2.47,-1.0,0.0,0.0,0,,,100,100,0,2,0,0,0,0,0,,,,,0.0,0.0,0
62,51.519333,5.857852,13.7,0.0,0.14,0.24,13.8,13.8,5.1,0.78,6198,2020-09-29 13:55:24,2020-09-29 15:55:24.805,12,0,0,16.026,51.519331,5.85785,-0.1,0.0,0.1,-2.4,-3.3,-16.4,0,1,0,98,97,-11294,5546,16026,2951.5,35,GPS,1,0,0,0,0,0,0,1601387724805,3949,3950,3983,3978,0,0,23,,,,,,,0,0,0,24.0,-33.0,-164.0,0.0,0.0,-167.0,6,137.0,1.41,2.37,-1.0,0.0,1.0,0,,,100,100,0,2,0,0,0,0,0,,,,,0.0,0.0,0
63,51.519333,5.857852,13.8,0.0,0.0,0.23,13.8,13.8,5.1,0.78,6293,2020-09-29 13:55:24,2020-09-29 15:55:24.901,12,0,0,16.026,51.519331,5.85785,0.0,0.0,0.0,-2.2,-3.3,-16.4,0,1,0,98,97,-11294,5546,16026,2951.5,35,GPS,1,0,0,0,0,0,0,1601387724900,3949,3950,3983,3978,0,0,23,,,,,,,0,0,0,22.0,-33.0,-164.0,0.0,0.0,-168.0,6,138.0,0.0,2.28,0.0,0.0,0.0,0,,,100,100,0,2,0,0,0,0,0,,,,,0.0,0.0,0
64,51.519333,5.857852,13.7,0.0,0.1,0.22,13.8,13.8,5.1,0.78,6405,2020-09-29 13:55:25,2020-09-29 15:55:25.013,12,0,0,16.026,51.519331,5.85785,0.0,0.0,0.1,-2.2,-3.4,-16.4,0,1,0,98,97,-11294,5546,16026,2951.5,35,GPS,1,0,0,0,0,0,0,1601387725012,3949,3950,3983,3978,0,0,23,,,,,,,0,0,0,22.0,-34.0,-164.0,0.0,0.0,-167.0,6,137.0,1.0,2.21,0.0,0.0,1.0,0,,,100,100,0,2,0,0,0,0,0,,,,,0.0,0.0,0
65,51.519333,5.857852,13.7,0.0,0.1,0.21,13.8,13.8,5.1,0.78,6506,2020-09-29 13:55:25,2020-09-29 15:55:25.114,12,0,0,16.026,51.519331,5.85785,0.0,0.0,0.1,-2.3,-3.3,-16.5,0,1,0,98,97,-11294,5546,16026,2951.5,35,GPS,1,0,0,0,0,0,0,1601387725113,3949,3950,3983,3978,0,0,23,,,,,,,0,0,0,23.0,-33.0,-165.0,0.0,0.0,-167.0,6,137.0,1.0,2.14,0.0,0.0,1.0,0,,,100,100,0,2,0,0,0,0,0,,,,,0.0,0.0,0
66,51.519332,5.857852,13.8,0.0,0.1,0.2,13.8,13.8,5.1,0.78,6608,2020-09-29 13:55:25,2020-09-29 15:55:25.215,12,0,0,16.026,51.519331,5.85785,0.0,0.0,0.1,-2.2,-3.3,-16.5,0,1,0,98,97,-11294,5546,16026,2951.5,35,GPS,1,0,0,0,0,0,0,1601387725215,3949,3950,3983,3978,0,0,23,,,,,,,0,0,0,22.0,-33.0,-165.0,0.0,0.0,-167.0,6,138.0,1.0,2.03,0.0,0.0,1.0,0,,,100,100,0,2,0,0,0,0,0,,,,,0.0,0.0,0
67,51.519332,5.857852,13.7,0.0,0.1,0.2,13.8,13.8,5.1,0.78,6704,2020-09-29 13:55:25,2020-09-29 15:55:25.311,12,0,0,16.026,51.519331,5.85785,0.0,0.0,0.1,-2.1,-3.3,-16.5,0,1,0,98,97,-11294,5546,16026,2951.5,35,GPS,1,0,0,0,0,0,0,1601387725311,3949,3950,3983,3978,0,0,23,,,,,,,0,0,0,21.0,-33.0,-165.0,0.0,0.0,-167.0,6,137.0,1.0,1.97,0.0,0.0,1.0,0,,,100,100,0,2,0,0,0,0,0,,,,,0.0,0.0,0
68,51.519332,5.857852,13.8,0.0,0.1,0.19,13.8,13.8,5.1,0.78,6818,2020-09-29 13:55:25,2020-09-29 15:55:25.425,12,0,0,16.026,51.519331,5.85785,0.0,0.0,0.1,-2.2,-3.2,-16.5,0,1,0,98,97,-11294,5546,16026,2951.5,35,GPS,1,0,0,0,0,0,0,1601387725425,3949,3950,3983,3978,0,0,23,,,,,,,0,0,0,22.0,-32.0,-165.0,0.0,0.0,-167.0,6,138.0,1.0,1.91,0.0,0.0,1.0,0,,,100,100,0,2,0,0,0,0,0,,,,,0.0,0.0,0
69,51.519332,5.857852,13.8,0.0,0.1,0.18,13.8,13.8,5.1,0.78,6917,2020-09-29 13:55:25,2020-09-29 15:55:25.524,12,0,0,16.026,51.519331,5.85785,0.0,0.0,0.1,-2.2,-3.3,-16.5,0,1,0,98,97,-11294,5546,16026,2951.5,35,GPS,1,0,0,0,0,0,0,1601387725524,3949,3950,3983,3978,0,0,23,,,,,,,0,0,0,22.0,-33.0,-165.0,0.0,0.0,-167.0,6,138.0,1.0,1.84,0.0,0.0,1.0,0,,,100,100,0,2,0,0,0,0,0,,,,,0.0,0.0,0
70,51.519332,5.857852,13.8,0.0,0.1,0.17,13.8,13.8,5.1,0.78,7013,2020-09-29 13:55:25,2020-09-29 15:55:25.621,12,0,0,16.026,51.519331,5.85785,0.0,0.0,0.1,-2.5,-3.5,-16.6,0,1,0,98,97,-11294,5546,16026,2951.5,35,GPS,1,0,0,0,0,0,0,1601387725620,3949,3950,3983,3978,0,0,23,,,,,,,0,0,0,25.0,-35.0,-166.0,0.0,0.0,-167.0,6,138.0,1.0,1.7,0.0,0.0,1.0,0,,,100,100,0,2,0,0,0,0,0,,,,,0.0,0.0,0
71,51.519332,5.857852,13.8,0.0,0.1,0.16,13.8,13.8,5.1,0.78,7107,2020-09-29 13:55:25,2020-09-29 15:55:25.715,12,0,0,16.026,51.519331,5.85785,0.0,0.0,0.1,-2.5,-3.6,-16.6,0,1,0,98,97,-11294,5546,16026,2951.5,35,GPS,1,0,0,0,0,0,0,1601387725714,3949,3950,3983,3978,0,0,23,,,,,,,0,0,0,25.0,-36.0,-166.0,0.0,0.0,-167.0,6,138.0,1.0,1.65,0.0,0.0,1.0,0,,,100,100,0,2,0,0,0,0,0,,,,,0.0,0.0,0
72,51.519332,5.857852,13.8,0.0,0.1,0.16,13.8,13.8,5.1,0.78,7200,2020-09-29 13:55:25,2020-09-29 15:55:25.808,12,0,0,16.021,51.519331,5.85785,0.0,0.0,0.1,-2.2,-3.9,-16.6,0,1,0,98,97,-11294,5546,16021,2951.5,35,GPS,1,0,0,0,0,0,0,1601387725807,3949,3950,3983,3978,0,0,23,,,,,,,0,0,0,22.0,-39.0,-166.0,0.0,0.0,-167.0,6,138.0,1.0,1.61,0.0,0.0,1.0,0,,,100,100,0,2,0,0,0,0,0,,,,,0.0,0.0,0
73,51.519332,5.857852,13.8,0.0,0.1,0.16,13.8,13.8,5.1,0.78,7304,2020-09-29 13:55:25,2020-09-29 15:55:25.912,12,0,0,16.021,51.519331,5.85785,0.0,0.0,0.1,-2.2,-3.9,-16.6,0,1,0,98,97,-11294,5546,16021,2951.5,35,GPS,1,0,0,0,0,0,0,1601387725911,3949,3950,3983,3978,0,0,23,,,,,,,0,0,0,22.0,-39.0,-166.0,0.0,0.0,-167.0,6,138.0,1.0,1.58,0.0,0.0,1.0,0,,,100,100,0,2,0,0,0,0,0,,,,,0.0,0.0,0
74,51.519332,5.857852,13.8,0.0,0.1,0.15,13.8,13.8,5.1,0.78,7405,2020-09-29 13:55:26,2020-09-29 15:55:26.012,12,0,0,16.021,51.519331,5.85785,0.0,0.0,0.1,-2.2,-3.6,-16.6,0,1,0,98,97,-11294,5546,16021,2951.5,35,GPS,1,0,0,0,0,0,0,1601387726012,3949,3950,3983,3978,0,0,23,,,,,,,0,0,0,22.0,-36.0,-166.0,0.0,0.0,-167.0,6,138.0,1.0,1.51,0.0,0.0,1.0,0,,,100,100,0,2,0,0,0,0,0,,,,,0.0,0.0,0
75,51.519332,5.857852,13.8,0.0,0.1,0.15,13.8,13.8,5.1,0.78,7508,2020-09-29 13:55:26,2020-09-29 15:55:26.116,12,0,0,16.021,51.519331,5.85785,0.0,0.0,0.1,-2.1,-3.4,-16.6,0,1,0,98,97,-11294,5546,16021,2951.5,35,GPS,1,0,0,0,0,0,0,1601387726115,3949,3950,3983,3978,0,0,23,,,,,,,0,0,0,21.0,-34.0,-166.0,0.0,0.0,-167.0,6,138.0,1.0,1.49,0.0,0.0,1.0,0,,,100,100,0,2,0,0,0,0,0,,,,,0.0,0.0,0
76,51.519332,5.857852,13.8,0.0,0.2,0.15,13.8,13.8,5.1,0.78,7614,2020-09-29 13:55:26,2020-09-29 15:55:26.222,12,0,0,16.021,51.519331,5.85785,0.0,0.0,0.2,-2.1,-3.4,-16.6,0,1,0,98,97,-11294,5546,16021,2951.5,35,GPS,1,0,0,0,0,0,0,1601387726221,3949,3950,3983,3978,0,0,23,,,,,,,0,0,0,21.0,-34.0,-166.0,0.0,0.0,-167.0,6,138.0,2.0,1.46,0.0,0.0,2.0,0,,,100,100,0,2,0,0,0,0,0,,,,,0.0,0.0,0
77,51.519332,5.857852,13.8,0.0,0.1,0.14,13.8,13.8,5.1,0.78,7698,2020-09-29 13:55:26,2020-09-29 15:55:26.306,12,0,0,16.021,51.519331,5.85785,0.0,0.0,0.1,-2.0,-3.1,-16.6,0,1,0,98,97,-11294,5546,16021,2951.5,35,GPS,1,0,0,0,0,0,0,1601387726305,3949,3950,3983,3978,0,0,23,,,,,,,0,0,0,20.0,-31.0,-166.0,0.0,0.0,-167.0,6,138.0,1.0,1.43,0.0,0.0,1.0,0,,,100,100,0,2,0,0,0,0,0,,,,,0.0,0.0,0
78,51.519332,5.857852,13.8,0.0,0.1,0.14,13.8,13.8,5.1,0.78,7816,2020-09-29 13:55:26,2020-09-29 15:55:26.424,12,0,0,16.021,51.519331,5.85785,0.0,0.0,0.1,-1.9,-2.9,-16.6,0,1,0,98,97,-11294,5546,16021,2951.5,35,GPS,1,0,0,0,0,0,0,1601387726423,3949,3950,3983,3978,0,0,23,,,,,,,0,0,0,19.0,-29.0,-166.0,0.0,0.0,-167.0,6,138.0,1.0,1.4,0.0,0.0,1.0,0,,,100,100,0,2,0,0,0,0,0,,,,,0.0,0.0,0
79,51.519332,5.857852,13.8,0.0,0.1,0.14,13.8,13.8,5.1,0.78,7913,2020-09-29 13:55:26,2020-09-29 15:55:26.520,12,0,0,16.021,51.519331,5.85785,0.0,0.0,0.1,-2.0,-2.9,-16.7,0,1,0,98,97,-11294,5546,16021,2951.5,35,GPS,1,0,0,0,0,0,0,1601387726520,3949,3950,3983,3978,0,0,23,,,,,,,0,0,0,20.0,-29.0,-167.0,0.0,0.0,-167.0,6,138.0,1.0,1.38,0.0,0.0,1.0,0,,,100,100,0,2,0,0,0,0,0,,,,,0.0,0.0,0
80,51.519332,5.857851,13.8,0.0,0.1,0.14,13.8,13.8,5.1,0.78,7994,2020-09-29 13:55:26,2020-09-29 15:55:26.602,11,0,0,16.021,51.519331,5.85785,0.0,0.0,0.1,-2.1,-3.0,-16.7,0,1,0,98,97,-11294,5546,16021,2951.5,35,GPS,1,0,0,0,0,0,0,1601387726601,3949,3950,3983,3978,0,0,23,,,,,,,0,0,0,21.0,-30.0,-167.0,0.0,0.0,-167.0,6,138.0,1.0,1.37,0.0,0.0,1.0,0,,,100,100,0,2,0,0,0,0,0,,,,,0.0,0.0,0
81,51.519332,5.857851,13.8,0.0,0.1,0.13,13.8,13.8,5.1,0.78,8094,2020-09-29 13:55:26,2020-09-29 15:55:26.701,11,0,0,16.021,51.519331,5.85785,0.0,0.0,0.1,-2.0,-3.0,-16.6,0,1,0,98,97,-11294,5546,16021,2951.5,35,GPS,1,0,0,0,0,0,0,1601387726701,3949,3950,3983,3978,0,0,23,,,,,,,0,0,0,20.0,-30.0,-166.0,0.0,0.0,-167.0,6,138.0,1.0,1.35,0.0,0.0,1.0,0,,,100,100,0,2,0,0,0,0,0,,,,,0.0,0.0,0
82,51.519332,5.857851,13.8,0.0,0.1,0.13,13.8,13.8,5.1,0.78,8197,2020-09-29 13:55:26,2020-09-29 15:55:26.805,10,0,0,16.066,51.519331,5.85785,0.0,0.0,0.1,-1.9,-2.8,-16.6,0,1,0,98,97,-11176,5546,16066,2951.5,35,GPS,1,0,0,0,0,0,0,1601387726804,3949,3950,3983,3978,0,0,23,,,,,,,0,0,0,19.0,-28.0,-166.0,0.0,0.0,-167.0,6,138.0,1.0,1.32,0.0,0.0,1.0,0,,,100,100,0,2,0,0,0,0,0,,,,,0.0,0.0,0
83,51.519332,5.857851,13.7,0.0,0.1,0.12,13.8,13.8,5.1,0.78,8298,2020-09-29 13:55:26,2020-09-29 15:55:26.905,10,0,0,16.066,51.519331,5.85785,0.0,0.0,0.1,-2.0,-2.5,-16.6,0,1,0,98,97,-11176,5546,16066,2951.5,35,GPS,1,0,0,0,0,0,0,1601387726905,3949,3950,3983,3978,0,0,23,,,,,,,0,0,0,20.0,-25.0,-166.0,0.0,0.0,-167.0,6,137.0,1.0,1.24,0.0,0.0,1.0,0,,,100,100,0,2,0,0,0,0,0,,,,,0.0,0.0,0
84,51.519332,5.857851,13.8,0.0,0.1,0.12,13.8,13.8,5.1,0.78,8404,2020-09-29 13:55:27,2020-09-29 15:55:27.012,10,0,0,16.066,51.519331,5.85785,0.0,0.0,0.1,-2.0,-2.7,-16.6,0,1,0,98,97,-11176,5546,16066,2951.5,35,GPS,1,0,0,0,0,0,0,1601387727011,3949,3950,3983,3978,0,0,23,,,,,,,0,0,0,20.0,-27.0,-166.0,0.0,0.0,-167.0,6,138.0,1.0,1.21,0.0,0.0,1.0,0,,,100,100,0,2,0,0,0,0,0,,,,,0.0,0.0,0
85,51.519332,5.857851,13.8,0.0,0.1,0.12,13.8,13.8,5.1,0.78,8520,2020-09-29 13:55:27,2020-09-29 15:55:27.127,10,0,0,16.066,51.519331,5.85785,0.0,0.0,0.1,-2.1,-2.8,-16.7,0,1,0,98,97,-11176,5546,16066,2951.5,35,GPS,1,0,0,0,0,0,0,1601387727127,3949,3950,3983,3978,0,0,23,,,,,,,0,0,0,21.0,-28.0,-167.0,0.0,0.0,-167.0,6,138.0,1.0,1.15,0.0,0.0,1.0,0,,,100,100,0,2,0,0,0,0,0,,,,,0.0,0.0,0
86,51.519332,5.857851,13.7,0.0,0.1,0.11,13.8,13.8,5.1,0.78,8616,2020-09-29 13:55:27,2020-09-29 15:55:27.224,11,0,0,16.066,51.519331,5.85785,0.0,0.0,0.1,-2.1,-2.7,-16.8,0,1,0,98,97,-11176,5546,16066,2951.5,35,GPS,1,0,0,0,0,0,0,1601387727223,3949,3950,3983,3978,0,0,23,,,,,,,0,0,0,21.0,-27.0,-168.0,0.0,0.0,-167.0,6,137.0,1.0,1.09,0.0,0.0,1.0,0,,,100,100,0,2,0,0,0,0,0,,,,,0.0,0.0,0
87,51.519332,5.857851,13.7,0.0,0.1,0.08,13.8,13.8,5.1,0.78,8704,2020-09-29 13:55:27,2020-09-29 15:55:27.311,11,0,0,16.066,51.519331,5.85785,0.0,0.0,0.1,-2.1,-2.5,-16.8,0,1,0,98,97,-11176,5546,16066,2951.5,35,GPS,1,0,0,0,0,0,0,1601387727311,3949,3950,3983,3978,0,0,23,,,,,,,0,0,0,21.0,-25.0,-168.0,0.0,0.0,-167.0,6,137.0,1.0,0.81,0.0,0.0,1.0,0,,,100,100,0,2,0,0,0,0,0,,,,,0.0,0.0,0
88,51.519332,5.857851,13.7,0.0,0.1,0.07,13.8,13.8,5.1,0.78,8807,2020-09-29 13:55:27,2020-09-29 15:55:27.414,11,0,0,16.066,51.519331,5.85785,0.0,0.0,0.1,-2.2,-2.1,-16.7,0,1,0,98,97,-11176,5546,16066,2951.5,35,GPS,1,0,0,0,0,0,0,1601387727414,3949,3950,3983,3978,0,0,23,,,,,,,0,0,0,22.0,-21.0,-167.0,0.0,0.0,-167.0,6,137.0,1.0,0.71,0.0,0.0,1.0,0,,,100,100,0,2,0,0,0,0,0,,,,,0.0,0.0,0
89,51.519331,5.857851,13.7,0.0,0.1,0.06,13.8,13.8,5.1,0.78,8915,2020-09-29 13:55:27,2020-09-29 15:55:27.523,11,0,0,16.066,51.519331,5.85785,0.0,0.0,0.1,-2.2,-1.8,-16.7,0,1,0,98,97,-11176,5546,16066,2951.5,35,GPS,1,0,0,0,0,0,0,1601387727522,3949,3950,3983,3978,0,0,23,,,,,,,0,0,0,22.0,-18.0,-167.0,0.0,0.0,-167.0,6,137.0,1.0,0.62,0.0,0.0,1.0,0,,,100,100,0,2,0,0,0,0,0,,,,,0.0,0.0,0
90,51.519331,5.857851,13.7,0.0,0.1,0.06,13.8,13.8,5.1,0.78,9011,2020-09-29 13:55:27,2020-09-29 15:55:27.619,11,0,0,16.066,51.519331,5.85785,0.0,0.0,0.1,-2.5,-1.9,-16.7,0,1,0,98,97,-11176,5546,16066,2951.5,35,GPS,1,0,0,0,0,0,0,1601387727618,3949,3950,3983,3978,0,0,23,,,,,,,0,0,0,25.0,-19.0,-167.0,0.0,0.0,-167.0,6,137.0,1.0,0.55,0.0,0.0,1.0,0,,,100,100,0,2,0,0,0,0,0,,,,,0.0,0.0,0
91,51.519331,5.857851,13.7,0.0,0.1,0.06,13.8,13.8,5.1,0.78,9113,2020-09-29 13:55:27,2020-09-29 15:55:27.721,11,0,0,16.066,51.519331,5.85785,0.0,0.0,0.1,-2.9,-2.2,-16.8,0,1,0,98,97,-11176,5546,16066,2951.5,35,GPS,1,0,0,0,0,0,0,1601387727720,3949,3950,3983,3978,0,0,23,,,,,,,0,0,0,29.0,-22.0,-168.0,0.0,0.0,-167.0,6,137.0,1.0,0.56,0.0,0.0,1.0,0,,,100,100,0,2,0,0,0,0,0,,,,,0.0,0.0,0
92,51.519331,5.857851,13.6,0.0,0.1,0.06,13.8,13.8,5.1,0.78,9200,2020-09-29 13:55:27,2020-09-29 15:55:27.808,12,0,0,15.993,51.519331,5.85785,0.0,0.0,0.1,-2.8,-2.4,-16.7,0,1,0,98,97,-11072,5546,15993,2951.5,35,GPS,1,0,0,0,0,0,0,1601387727807,3949,3950,3983,3978,0,0,23,,,,,,,0,0,0,28.0,-24.0,-167.0,0.0,0.0,-168.0,6,136.0,1.0,0.56,0.0,0.0,1.0,0,,,100,100,0,2,0,0,0,0,0,,,,,0.0,0.0,0
93,51.519331,5.857851,13.7,0.0,0.1,0.06,13.8,13.8,5.1,0.78,9314,2020-09-29 13:55:27,2020-09-29 15:55:27.922,12,0,0,15.993,51.519331,5.85785,0.0,0.0,0.1,-2.7,-2.3,-16.8,0,1,0,98,97,-11072,5546,15993,2951.5,35,GPS,1,0,0,0,0,0,0,1601387727921,3949,3950,3983,3978,0,0,23,,,,,,,0,0,0,27.0,-23.0,-168.0,0.0,0.0,-167.0,6,137.0,1.0,0.55,0.0,0.0,1.0,0,,,100,100,0,2,0,0,0,0,0,,,,,0.0,0.0,0
94,51.519331,5.857851,13.7,0.0,0.1,0.06,13.8,13.8,5.1,0.78,9405,2020-09-29 13:55:28,2020-09-29 15:55:28.012,12,0,0,15.993,51.519331,5.85785,0.0,0.0,0.1,-2.8,-2.6,-16.8,0,1,0,98,97,-11072,5546,15993,2951.5,35,GPS,1,0,0,0,0,0,0,1601387728012,3949,3950,3983,3978,0,0,23,,,,,,,0,0,0,28.0,-26.0,-168.0,0.0,0.0,-167.0,6,137.0,1.0,0.56,0.0,0.0,1.0,0,,,100,100,0,2,0,0,0,0,0,,,,,0.0,0.0,0
95,51.519331,5.857851,13.7,0.0,0.1,0.06,13.8,13.8,5.1,0.78,9513,2020-09-29 13:55:28,2020-09-29 15:55:28.121,12,0,0,15.993,51.519331,5.85785,0.0,0.0,0.1,-2.6,-2.7,-16.8,0,1,0,98,97,-11072,5546,15993,2951.5,35,GPS,1,0,0,0,0,0,0,1601387728120,3949,3950,3983,3978,0,0,23,,,,,,,0,0,0,26.0,-27.0,-168.0,0.0,0.0,-167.0,6,137.0,1.0,0.64,0.0,0.0,1.0,0,,,100,100,0,2,0,0,0,0,0,,,,,0.0,0.0,0
96,51.519331,5.857851,13.7,0.0,0.1,0.07,13.8,13.8,5.1,0.78,9610,2020-09-29 13:55:28,2020-09-29 15:55:28.217,12,0,0,15.993,51.519331,5.85785,0.0,0.0,0.1,-2.6,-2.6,-16.8,0,1,0,98,97,-11072,5546,15993,2951.5,35,GPS,1,0,0,0,0,0,0,1601387728217,3949,3950,3983,3978,0,0,23,,,,,,,0,0,0,26.0,-26.0,-168.0,0.0,0.0,-167.0,6,137.0,1.0,0.68,0.0,0.0,1.0,0,,,100,100,0,2,0,0,0,0,0,,,,,0.0,0.0,0
97,51.519331,5.857851,13.7,0.0,0.1,0.07,13.8,13.8,5.1,0.78,9700,2020-09-29 13:55:28,2020-09-29 15:55:28.307,12,0,0,15.993,51.519331,5.85785,0.0,0.0,0.1,-2.6,-2.7,-16.8,0,1,0,98,97,-11072,5546,15993,2951.5,35,GPS,1,0,0,0,0,0,0,1601387728307,3949,3950,3983,3978,0,0,23,,,,,,,0,0,0,26.0,-27.0,-168.0,0.0,0.0,-167.0,6,137.0,1.0,0.72,0.0,0.0,1.0,0,,,100,100,0,2,0,0,0,0,0,,,,,0.0,0.0,0
98,51.519332,5.857851,13.7,0.0,0.1,0.08,13.8,13.8,5.1,0.78,9797,2020-09-29 13:55:28,2020-09-29 15:55:28.405,12,0,0,15.993,51.519331,5.85785,0.0,0.0,0.1,-2.6,-2.9,-16.8,0,1,0,98,97,-11072,5546,15993,2951.5,35,GPS,1,0,0,0,0,0,0,1601387728404,3949,3950,3983,3978,0,0,23,,,,,,,0,0,0,26.0,-29.0,-168.0,0.0,0.0,-167.0,6,137.0,1.0,0.77,0.0,0.0,1.0,0,,,100,100,0,2,0,0,0,0,0,,,,,0.0,0.0,0
99,51.519332,5.857851,13.7,0.0,0.1,0.08,13.8,13.8,5.1,0.78,9910,2020-09-29 13:55:28,2020-09-29 15:55:28.518,12,0,0,15.993,51.519331,5.85785,0.0,0.0,0.1,-2.8,-2.7,-16.8,0,1,0,98,97,-11072,5546,15993,2951.5,35,GPS,1,0,0,0,0,0,0,1601387728517,3949,3950,3983,3978,0,0,23,,,,,,,0,0,0,28.0,-27.0,-168.0,0.0,0.0,-167.0,6,137.0,1.0,0.82,0.0,0.0,1.0,0,,,100,100,0,2,0,0,0,0,0,,,,,0.0,0.0,0
100,51.519332,5.857851,13.8,0.0,0.1,0.09,13.8,13.8,5.1,0.78,10014,2020-09-29 13:55:28,2020-09-29 15:55:28.621,12,0,0,15.993,51.519331,5.85785,0.0,0.0,0.1,-2.9,-2.7,-16.8,0,1,0,98,97,-11072,5546,15993,2951.5,35,GPS,1,0,0,0,0,0,0,1601387728621,3949,3950,3983,3978,0,0,23,,,,,,,0,0,0,29.0,-27.0,-168.0,0.0,0.0,-168.0,6,138.0,1.0,0.93,0.0,0.0,1.0,0,,,100,100,0,2,0,0,0,0,0,,,,,0.0,0.0,0
101,51.519332,5.857851,13.8,0.0,0.1,0.09,13.8,13.8,5.1,0.78,10110,2020-09-29 13:55:28,2020-09-29 15:55:28.718,12,0,0,15.993,51.519331,5.85785,0.0,0.0,0.1,-2.9,-2.9,-16.8,0,1,0,98,97,-11072,5546,15993,2951.5,35,GPS,1,0,0,0,0,0,0,1601387728717,3949,3950,3983,3978,0,0,23,,,,,,,0,0,0,29.0,-29.0,-168.0,0.0,0.0,-167.0,6,138.0,1.0,0.9,0.0,0.0,1.0,0,,,100,100,0,2,0,0,0,0,0,,,,,0.0,0.0,0
102,51.519331,5.857851,13.8,0.0,0.1,0.09,13.8,13.8,5.1,0.78,10207,2020-09-29 13:55:28,2020-09-29 15:55:28.814,12,0,0,16.017,51.519331,5.85785,0.0,0.0,0.1,-2.9,-3.0,-16.8,0,1,0,98,97,-11050,5546,16017,2951.5,35,GPS,1,0,0,0,0,0,0,1601387728814,3949,3950,3983,3978,0,0,23,,,,,,,0,0,0,29.0,-30.0,-168.0,0.0,0.0,-167.0,6,138.0,1.0,0.88,0.0,0.0,1.0,0,,,100,100,0,2,0,0,0,0,0,,,,,0.0,0.0,0
103,51.519331,5.857851,13.7,0.0,0.1,0.09,13.8,13.8,5.1,0.78,10295,2020-09-29 13:55:28,2020-09-29 15:55:28.903,12,0,0,16.017,51.519331,5.85785,0.0,0.0,0.1,-2.6,-2.8,-16.8,0,1,0,98,97,-11050,5546,16017,2951.5,35,GPS,1,0,0,0,0,0,0,1601387728902,3949,3950,3983,3978,0,0,23,,,,,,,0,0,0,26.0,-28.0,-168.0,0.0,0.0,-167.0,6,137.0,1.0,0.86,0.0,0.0,1.0,0,,,100,100,0,2,0,0,0,0,0,,,,,0.0,0.0,0
104,51.519331,5.857851,13.8,0.0,0.1,0.08,13.8,13.8,5.1,0.78,10395,2020-09-29 13:55:29,2020-09-29 15:55:29.002,12,0,0,16.017,51.519331,5.85785,0.0,0.0,0.1,-2.5,-3.0,-16.8,0,1,0,98,97,-11050,5546,16017,2951.5,35,GPS,1,0,0,0,0,0,0,1601387729002,3949,3950,3983,3978,0,0,23,,,,,,,0,0,0,25.0,-30.0,-168.0,0.0,0.0,-168.0,6,138.0,1.0,0.76,0.0,0.0,1.0,0,,,100,100,0,2,0,0,0,0,0,,,,,0.0,0.0,0
105,51.519331,5.857851,13.7,0.0,0.1,0.08,13.8,13.8,5.1,0.78,10494,2020-09-29 13:55:29,2020-09-29 15:55:29.102,12,0,0,16.017,51.519331,5.85785,0.0,0.0,0.1,-2.4,-3.1,-16.9,0,1,0,98,97,-11050,5546,16017,2951.5,35,GPS,1,0,0,0,0,0,0,1601387729101,3949,3950,3983,3978,0,0,23,,,,,,,0,0,0,24.0,-31.0,-169.0,0.0,0.0,-167.0,6,137.0,1.0,0.77,0.0,0.0,1.0,0,,,100,100,0,2,0,0,0,0,0,,,,,0.0,0.0,0
106,51.519331,5.857851,13.7,0.0,0.1,0.08,13.8,13.8,5.1,0.78,10618,2020-09-29 13:55:29,2020-09-29 15:55:29.225,12,0,0,16.017,51.519331,5.85785,0.0,0.0,0.1,-2.5,-3.1,-16.8,0,1,0,98,97,-11050,5546,16017,2951.5,35,GPS,1,0,0,0,0,0,0,1601387729225,3949,3950,3983,3978,0,0,23,,,,,,,0,0,0,25.0,-31.0,-168.0,0.0,0.0,-167.0,6,137.0,1.0,0.79,0.0,0.0,1.0,0,,,100,100,0,2,0,0,0,0,0,,,,,0.0,0.0,0
107,51.519331,5.857851,13.7,0.0,0.1,0.08,13.8,13.8,5.1,0.78,10697,2020-09-29 13:55:29,2020-09-29 15:55:29.305,12,0,0,16.017,51.519331,5.85785,0.0,0.0,0.1,-2.6,-2.9,-16.8,0,1,0,98,97,-11050,5546,16017,2951.5,35,GPS,1,0,0,0,0,0,0,1601387729304,3949,3950,3983,3978,0,0,23,,,,,,,0,0,0,26.0,-29.0,-168.0,0.0,0.0,-168.0,6,137.0,1.0,0.78,0.0,0.0,1.0,0,,,100,100,0,2,0,0,0,0,0,,,,,0.0,0.0,0
108,51.519331,5.857851,13.7,0.0,0.1,0.08,13.8,13.8,5.1,0.78,10795,2020-09-29 13:55:29,2020-09-29 15:55:29.403,12,0,0,16.017,51.519331,5.85785,0.0,0.0,0.1,-2.4,-3.1,-16.8,0,1,0,98,97,-11050,5546,16017,2951.5,35,GPS,1,0,0,0,0,0,0,1601387729402,3949,3950,3983,3978,0,0,23,,,,,,,0,0,0,24.0,-31.0,-168.0,0.0,0.0,-167.0,6,137.0,1.0,0.79,0.0,0.0,1.0,0,,,100,100,0,2,0,0,0,0,0,,,,,0.0,0.0,0
109,51.519332,5.857851,13.7,0.0,0.1,0.09,13.8,13.8,5.1,0.78,10906,2020-09-29 13:55:29,2020-09-29 15:55:29.513,12,0,0,16.017,51.519331,5.85785,0.0,0.0,0.1,-2.5,-3.2,-16.8,0,1,0,98,97,-11050,5546,16017,2951.5,35,GPS,1,0,0,0,0,0,0,1601387729513,3949,3950,3983,3978,0,0,23,,,,,,,0,0,0,25.0,-32.0,-168.0,0.0,0.0,-167.0,6,137.0,1.0,0.87,0.0,0.0,1.0,0,,,100,100,0,2,0,0,0,0,0,,,,,0.0,0.0,0
110,51.519332,5.857851,13.7,0.0,0.1,0.09,13.8,13.8,5.1,0.78,11010,2020-09-29 13:55:29,2020-09-29 15:55:29.617,12,0,0,16.017,51.519331,5.85785,0.0,0.0,0.1,-2.8,-3.0,-16.8,0,1,0,98,97,-11050,5546,16017,2951.5,35,GPS,1,0,0,0,0,0,0,1601387729617,3949,3950,3983,3978,0,0,23,,,,,,,0,0,0,28.0,-30.0,-168.0,0.0,0.0,-168.0,6,137.0,1.0,0.93,0.0,0.0,1.0,0,,,100,100,0,2,0,0,0,0,0,,,,,0.0,0.0,0
111,51.519332,5.857851,13.6,0.0,0.1,0.09,13.8,13.8,5.1,0.78,11096,2020-09-29 13:55:29,2020-09-29 15:55:29.703,12,0,0,16.017,51.519331,5.85785,0.0,0.0,0.1,-2.7,-3.1,-16.7,0,1,0,98,97,-11050,5546,16017,2951.5,35,GPS,1,0,0,0,0,0,0,1601387729703,3949,3950,3983,3978,0,0,23,,,,,,,0,0,0,27.0,-31.0,-167.0,0.0,0.0,-167.0,6,136.0,1.0,0.89,0.0,0.0,1.0,0,,,100,100,0,2,0,0,0,0,0,,,,,0.0,0.0,0
112,51.519331,5.857851,13.6,0.0,0.1,0.09,13.8,13.8,5.1,0.78,11196,2020-09-29 13:55:29,2020-09-29 15:55:29.803,11,0,0,16.012,51.519331,5.85785,0.0,0.0,0.1,-2.9,-3.1,-16.7,0,1,0,98,97,-10764,5546,16012,2951.5,35,GPS,1,0,0,0,0,0,0,1601387729803,3949,3950,3983,3978,0,0,23,,,,,,,0,0,0,29.0,-31.0,-167.0,0.0,0.0,-168.0,6,136.0,1.0,0.85,0.0,0.0,1.0,0,,,100,100,0,2,0,0,0,0,0,,,,,0.0,0.0,0
113,51.519331,5.857851,13.6,0.0,0.1,0.09,13.8,13.8,5.1,0.78,11297,2020-09-29 13:55:29,2020-09-29 15:55:29.905,11,0,0,16.012,51.519331,5.85785,0.0,0.0,0.1,-3.1,-3.2,-16.7,0,1,0,98,97,-10764,5546,16012,2951.5,35,GPS,1,0,0,0,0,0,0,1601387729904,3949,3950,3983,3978,0,0,23,,,,,,,0,0,0,31.0,-32.0,-167.0,0.0,0.0,-168.0,6,136.0,1.0,0.85,0.0,0.0,1.0,0,,,100,100,0,2,0,0,0,0,0,,,,,0.0,0.0,0
114,51.519331,5.857851,13.6,0.0,0.1,0.09,13.8,13.8,5.1,0.78,11407,2020-09-29 13:55:30,2020-09-29 15:55:30.014,11,0,0,16.012,51.519331,5.85785,0.0,0.0,0.1,-3.0,-3.2,-16.7,0,1,0,98,97,-10764,5546,16012,2951.5,35,GPS,1,0,0,0,0,0,0,1601387730014,3949,3950,3983,3978,0,0,23,,,,,,,0,0,0,30.0,-32.0,-167.0,0.0,0.0,-167.0,6,136.0,1.0,0.86,0.0,0.0,1.0,0,,,100,100,0,2,0,0,0,0,0,,,,,0.0,0.0,0
115,51.519331,5.857851,13.6,0.0,0.1,0.09,13.8,13.8,5.1,0.78,11518,2020-09-29 13:55:30,2020-09-29 15:55:30.126,11,0,0,16.012,51.519331,5.85785,0.0,0.0,0.1,-2.8,-3.0,-16.7,0,1,0,98,97,-10764,5546,16012,2951.5,35,GPS,1,0,0,0,0,0,0,1601387730125,3949,3950,3983,3978,0,0,23,,,,,,,0,0,0,28.0,-30.0,-167.0,0.0,0.0,-168.0,6,136.0,1.0,0.87,0.0,0.0,1.0,0,,,100,100,0,2,0,0,0,0,0,,,,,0.0,0.0,0
116,51.519331,5.857851,13.6,0.0,0.1,0.09,13.8,13.8,5.1,0.78,11611,2020-09-29 13:55:30,2020-09-29 15:55:30.219,11,0,0,16.012,51.519331,5.85785,0.0,0.0,0.1,-2.6,-2.7,-16.7,0,1,0,98,97,-10764,5546,16012,2951.5,35,GPS,1,0,0,0,0,0,0,1601387730218,3949,3950,3983,3978,0,0,23,,,,,,,0,0,0,26.0,-27.0,-167.0,0.0,0.0,-168.0,6,136.0,1.0,0.89,0.0,0.0,1.0,0,,,100,100,0,2,0,0,0,0,0,,,,,0.0,0.0,0
117,51.519332,5.857851,13.6,0.0,0.1,0.1,13.8,13.8,5.1,0.78,11704,2020-09-29 13:55:30,2020-09-29 15:55:30.311,11,0,0,16.012,51.519331,5.85785,0.0,0.0,0.1,-2.3,-2.8,-16.7,0,1,0,98,97,-10764,5546,16012,2951.5,35,GPS,1,0,0,0,0,0,0,1601387730311,3949,3950,3983,3978,0,0,23,,,,,,,0,0,0,23.0,-28.0,-167.0,0.0,0.0,-167.0,6,136.0,1.0,1.02,0.0,0.0,1.0,0,,,100,100,0,2,0,0,0,0,0,,,,,0.0,0.0,0
118,51.519332,5.857851,13.6,0.0,0.1,0.11,13.8,13.8,5.1,0.78,11798,2020-09-29 13:55:30,2020-09-29 15:55:30.406,11,0,0,16.012,51.519331,5.85785,0.0,0.0,0.1,-2.3,-3.1,-16.7,0,1,0,98,97,-10764,5546,16012,2951.5,35,GPS,1,0,0,0,0,0,0,1601387730405,3949,3950,3983,3978,0,0,23,,,,,,,0,0,0,23.0,-31.0,-167.0,0.0,0.0,-167.0,6,136.0,1.0,1.09,0.0,0.0,1.0,0,,,100,100,0,2,0,0,0,0,0,,,,,0.0,0.0,0
119,51.519332,5.857851,13.6,0.0,0.1,0.12,13.8,13.8,5.1,0.78,11899,2020-09-29 13:55:30,2020-09-29 15:55:30.506,11,0,0,16.012,51.519331,5.85785,0.0,0.0,0.1,-2.3,-3.3,-16.7,0,1,0,98,97,-10764,5546,16012,2951.5,35,GPS,1,0,0,0,0,0,0,1601387730506,3949,3950,3983,3978,0,0,23,,,,,,,0,0,0,23.0,-33.0,-167.0,0.0,0.0,-168.0,6,136.0,1.0,1.2,0.0,0.0,1.0,0,,,100,100,0,2,0,0,0,0,0,,,,,0.0,0.0,0
120,51.519332,5.857851,13.6,0.0,0.1,0.13,13.8,13.8,5.1,0.78,11995,2020-09-29 13:55:30,2020-09-29 15:55:30.603,11,0,0,16.012,51.519331,5.85785,0.0,0.0,0.1,-2.4,-3.5,-16.7,0,1,0,98,97,-10764,5546,16012,2951.5,35,GPS,1,0,0,0,0,0,0,1601387730602,3949,3950,3983,3978,0,0,23,,,,,,,0,0,0,24.0,-35.0,-167.0,0.0,0.0,-168.0,6,136.0,1.0,1.29,0.0,0.0,1.0,0,,,100,100,0,2,0,0,0,0,0,,,,,0.0,0.0,0
121,51.519332,5.857852,13.5,0.0,0.1,0.13,13.8,13.8,5.1,0.78,12095,2020-09-29 13:55:30,2020-09-29 15:55:30.703,11,0,0,16.012,51.519331,5.85785,0.0,0.0,0.1,-2.4,-3.6,-16.8,0,1,0,98,97,-10764,5546,16012,2951.5,35,GPS,1,0,0,0,0,0,0,1601387730702,3949,3950,3983,3978,0,0,23,,,,,,,0,0,0,24.0,-36.0,-168.0,0.0,0.0,-168.0,6,135.0,1.0,1.32,0.0,0.0,1.0,0,,,100,100,0,2,0,0,0,0,0,,,,,0.0,0.0,0
122,51.519332,5.857852,13.5,0.0,0.1,0.13,13.8,13.8,5.1,0.78,12195,2020-09-29 13:55:30,2020-09-29 15:55:30.803,12,0,0,16.017,51.519331,5.85785,0.0,0.0,0.1,-2.6,-3.6,-16.8,0,1,0,98,97,-10764,5546,16017,2951.5,35,GPS,1,0,0,0,0,0,0,1601387730802,3949,3950,3983,3978,0,0,23,,,,,,,0,0,0,26.0,-36.0,-168.0,0.0,0.0,-168.0,6,135.0,1.0,1.33,0.0,0.0,1.0,0,,,100,100,0,2,0,0,0,0,0,,,,,0.0,0.0,0
123,51.519332,5.857852,13.5,0.0,0.1,0.13,13.8,13.8,5.1,0.78,12305,2020-09-29 13:55:30,2020-09-29 15:55:30.913,12,0,0,16.017,51.519331,5.85785,0.0,0.0,0.1,-2.6,-3.6,-16.7,0,1,0,98,97,-10764,5546,16017,2951.5,35,GPS,1,0,0,0,0,0,0,1601387730912,3949,3950,3983,3978,0,0,23,,,,,,,0,0,0,26.0,-36.0,-167.0,0.0,0.0,-168.0,6,135.0,1.0,1.34,0.0,0.0,1.0,0,,,100,100,0,2,0,0,0,0,0,,,,,0.0,0.0,0
124,51.519332,5.857852,13.5,0.0,0.0,0.14,13.8,13.8,5.1,0.78,12405,2020-09-29 13:55:31,2020-09-29 15:55:31.012,12,0,0,16.017,51.519331,5.85785,0.0,0.0,0.0,-2.3,-3.7,-16.8,0,1,0,98,97,-10764,5546,16017,2951.5,35,GPS,1,0,0,0,0,0,0,1601387731012,3949,3950,3983,3978,0,0,23,,,,,,,0,0,0,23.0,-37.0,-168.0,0.0,0.0,-168.0,6,135.0,0.0,1.35,0.0,0.0,0.0,0,,,100,100,0,2,0,0,0,0,0,,,,,0.0,0.0,0
125,51.519332,5.857852,13.5,0.0,0.0,0.12,13.8,13.8,5.1,0.78,12507,2020-09-29 13:55:31,2020-09-29 15:55:31.115,12,0,0,16.017,51.519331,5.85785,0.0,0.0,0.0,-2.3,-3.5,-16.8,0,1,0,98,97,-10764,5546,16017,2951.5,35,GPS,1,0,0,0,0,0,0,1601387731114,3949,3950,3983,3978,0,0,23,,,,,,,0,0,0,23.0,-35.0,-168.0,0.0,0.0,-168.0,6,135.0,0.0,1.21,0.0,0.0,0.0,0,,,100,100,0,2,0,0,0,0,0,,,,,0.0,0.0,0
126,51.519332,5.857852,13.5,0.0,0.0,0.12,13.8,13.8,5.1,0.78,12602,2020-09-29 13:55:31,2020-09-29 15:55:31.210,12,0,0,16.017,51.519331,5.85785,0.0,0.0,0.0,-2.2,-3.4,-16.7,0,1,0,98,97,-10764,5546,16017,2951.5,35,GPS,1,0,0,0,0,0,0,1601387731209,3949,3950,3983,3978,0,0,23,,,,,,,0,0,0,22.0,-34.0,-167.0,0.0,0.0,-168.0,6,135.0,0.0,1.19,0.0,0.0,0.0,0,,,100,100,0,2,0,0,0,0,0,,,,,0.0,0.0,0
127,51.519332,5.857852,13.5,0.0,0.0,0.12,13.8,13.8,5.1,0.78,12700,2020-09-29 13:55:31,2020-09-29 15:55:31.308,12,0,0,16.017,51.519331,5.85785,0.0,0.0,0.0,-2.3,-3.5,-16.7,0,1,0,98,97,-10764,5546,16017,2951.5,35,GPS,1,0,0,0,0,0,0,1601387731307,3949,3950,3983,3978,0,0,23,,,,,,,0,0,0,23.0,-35.0,-167.0,0.0,0.0,-168.0,6,135.0,0.0,1.18,0.0,0.0,0.0,0,,,100,100,0,2,0,0,0,0,0,,,,,0.0,0.0,0
128,51.519332,5.857852,13.5,0.0,0.0,0.12,13.8,13.8,5.1,0.78,12796,2020-09-29 13:55:31,2020-09-29 15:55:31.403,12,0,0,16.017,51.519331,5.85785,0.0,0.0,0.0,-2.3,-3.5,-16.8,0,1,0,98,97,-10764,5546,16017,2951.5,35,GPS,1,0,0,0,0,0,0,1601387731403,3949,3950,3983,3978,0,0,23,,,,,,,0,0,0,23.0,-35.0,-168.0,0.0,0.0,-168.0,6,135.0,0.0,1.17,0.0,0.0,0.0,0,,,100,100,0,2,0,0,0,0,0,,,,,0.0,0.0,0
129,51.519332,5.857852,13.5,0.0,0.0,0.12,13.8,13.8,5.1,0.78,12910,2020-09-29 13:55:31,2020-09-29 15:55:31.518,12,0,0,16.017,51.519331,5.85785,0.0,0.0,0.0,-2.3,-3.6,-16.7,0,1,0,98,97,-10764,5546,16017,2951.5,35,GPS,1,0,0,0,0,0,0,1601387731517,3949,3950,3983,3978,0,0,23,,,,,,,0,0,0,23.0,-36.0,-167.0,0.0,0.0,-168.0,6,135.0,0.0,1.19,0.0,0.0,0.0,0,,,100,100,0,2,0,0,0,0,0,,,,,0.0,0.0,0
130,51.519332,5.857852,13.6,0.0,0.0,0.12,13.8,13.8,5.1,0.78,13017,2020-09-29 13:55:31,2020-09-29 15:55:31.625,12,0,0,16.017,51.519331,5.85785,0.0,0.0,0.0,-2.5,-3.7,-16.7,0,1,0,98,97,-10764,5546,16017,2951.5,35,GPS,1,0,0,0,0,0,0,1601387731624,3949,3950,3983,3978,0,0,23,,,,,,,0,0,0,25.0,-37.0,-167.0,0.0,0.0,-168.0,6,136.0,0.0,1.22,0.0,0.0,0.0,0,,,100,100,0,2,0,0,0,0,0,,,,,0.0,0.0,0
131,51.519332,5.857852,13.5,0.0,0.0,0.13,13.8,13.8,5.1,0.78,13117,2020-09-29 13:55:31,2020-09-29 15:55:31.725,12,0,0,16.017,51.519331,5.85785,0.0,0.0,0.0,-2.4,-3.7,-16.7,0,1,0,98,97,-10764,5546,16017,2951.5,35,GPS,1,0,0,0,0,0,0,1601387731724,3949,3950,3983,3978,0,0,23,,,,,,,0,0,0,24.0,-37.0,-167.0,0.0,0.0,-168.0,6,135.0,0.0,1.27,0.0,0.0,0.0,0,,,100,100,0,2,0,0,0,0,0,,,,,0.0,0.0,0
132,51.519332,5.857852,13.5,0.0,0.0,0.13,13.8,13.8,5.1,0.78,13215,2020-09-29 13:55:31,2020-09-29 15:55:31.822,12,0,0,15.988,51.519331,5.85785,0.0,0.0,0.0,-2.3,-3.8,-16.7,0,1,0,98,97,-10944,5546,15988,2951.5,35,GPS,1,0,0,0,0,0,0,1601387731822,3949,3950,3983,3978,0,0,23,,,,,,,0,0,0,23.0,-38.0,-167.0,0.0,0.0,-168.0,6,135.0,0.0,1.31,0.0,0.0,0.0,0,,,100,100,0,2,0,0,0,0,0,,,,,0.0,0.0,0
133,51.519332,5.857852,13.5,0.0,0.0,0.13,13.8,13.8,5.1,0.78,13320,2020-09-29 13:55:31,2020-09-29 15:55:31.927,12,0,0,15.988,51.519331,5.85785,0.0,0.0,0.0,-2.3,-3.8,-16.8,0,1,0,98,97,-10944,5546,15988,2951.5,35,GPS,1,0,0,0,0,0,0,1601387731927,3949,3950,3983,3978,0,0,23,,,,,,,0,0,0,23.0,-38.0,-168.0,0.0,0.0,-168.0,6,135.0,0.0,1.35,0.0,0.0,0.0,0,,,100,100,0,2,0,0,0,0,0,,,,,0.0,0.0,0
134,51.519332,5.857852,13.5,0.0,0.0,0.14,13.8,13.8,5.1,0.78,13416,2020-09-29 13:55:32,2020-09-29 15:55:32.024,12,0,0,15.988,51.519331,5.85785,0.0,0.0,0.0,-2.1,-3.7,-16.7,0,1,0,98,97,-10944,5546,15988,2951.5,35,GPS,1,0,0,0,0,0,0,1601387732023,3949,3950,3983,3978,0,0,23,,,,,,,0,0,0,21.0,-37.0,-167.0,0.0,0.0,-168.0,6,135.0,0.0,1.43,0.0,0.0,0.0,0,,,100,100,0,2,0,0,0,0,0,,,,,0.0,0.0,0
135,51.519332,5.857852,13.5,0.0,0.0,0.15,13.8,13.8,5.1,0.78,13520,2020-09-29 13:55:32,2020-09-29 15:55:32.128,12,0,0,15.988,51.519331,5.85785,0.0,0.0,0.0,-2.1,-3.7,-16.8,0,1,0,98,97,-10944,5546,15988,2951.5,35,GPS,1,0,0,0,0,0,0,1601387732127,3949,3950,3983,3978,0,0,23,,,,,,,0,0,0,21.0,-37.0,-168.0,0.0,0.0,-168.0,6,135.0,0.0,1.47,0.0,0.0,0.0,0,,,100,100,0,2,0,0,0,0,0,,,,,0.0,0.0,0
136,51.519332,5.857852,13.5,0.0,0.0,0.15,13.8,13.8,5.1,0.78,13616,2020-09-29 13:55:32,2020-09-29 15:55:32.224,12,0,0,15.988,51.519331,5.85785,0.0,0.0,0.0,-2.2,-3.7,-16.8,0,1,0,98,97,-10944,5546,15988,2951.5,35,GPS,1,0,0,0,0,0,0,1601387732223,3949,3950,3983,3978,0,0,23,,,,,,,0,0,0,22.0,-37.0,-168.0,0.0,0.0,-167.0,6,135.0,0.0,1.51,0.0,0.0,0.0,0,,,100,100,0,2,0,0,0,0,0,,,,,0.0,0.0,0
137,51.519332,5.857852,13.5,0.0,0.0,0.16,13.8,13.8,5.1,0.78,13697,2020-09-29 13:55:32,2020-09-29 15:55:32.304,12,0,0,15.988,51.519331,5.85785,0.0,0.0,0.0,-2.4,-3.6,-16.7,0,1,0,98,97,-10944,5546,15988,2951.5,35,GPS,1,0,0,0,0,0,0,1601387732304,4008,4005,4037,4032,0,0,23,,,,,,,0,0,0,24.0,-36.0,-167.0,0.0,0.0,-168.0,6,135.0,0.0,1.56,0.0,0.0,0.0,0,,,100,100,0,2,0,0,0,0,0,,,,,0.0,0.0,0
138,51.519332,5.857852,13.5,0.0,0.0,0.17,13.8,13.8,5.1,0.78,13817,2020-09-29 13:55:32,2020-09-29 15:55:32.424,12,0,0,15.988,51.519331,5.85785,0.0,0.0,0.0,-2.3,-3.7,-16.7,0,1,0,98,97,-10944,5546,15988,2951.5,35,GPS,1,0,0,0,0,0,0,1601387732424,4008,4005,4037,4032,0,0,23,,,,,,,0,0,0,23.0,-37.0,-167.0,0.0,0.0,-168.0,6,135.0,0.0,1.71,0.0,0.0,0.0,0,,,100,100,0,2,0,0,0,0,0,,,,,0.0,0.0,0
139,51.519332,5.857852,13.5,0.0,0.0,0.17,13.8,13.8,5.1,0.78,13916,2020-09-29 13:55:32,2020-09-29 15:55:32.524,12,0,0,15.988,51.519331,5.85785,0.0,0.0,0.0,-2.2,-3.8,-16.7,0,1,0,98,97,-10944,5546,15988,2951.5,35,GPS,1,0,0,0,0,0,0,1601387732523,4008,4005,4037,4032,0,0,23,,,,,,,0,0,0,22.0,-38.0,-167.0,0.0,0.0,-168.0,6,135.0,0.0,1.73,0.0,0.0,0.0,0,,,100,100,0,2,0,0,0,0,0,,,,,0.0,0.0,0
140,51.519332,5.857852,13.5,0.0,0.0,0.17,13.8,13.8,5.1,0.78,14018,2020-09-29 13:55:32,2020-09-29 15:55:32.626,12,0,0,15.988,51.519331,5.85785,0.0,0.0,0.0,-2.4,-3.9,-16.6,0,1,0,98,97,-10944,5546,15988,2951.5,35,GPS,1,0,0,0,0,0,0,1601387732625,4008,4005,4037,4032,0,0,23,,,,,,,0,0,0,24.0,-39.0,-166.0,0.0,0.0,-168.0,6,135.0,0.0,1.74,0.0,0.0,0.0,0,,,100,100,0,2,0,0,0,0,0,,,,,0.0,0.0,0
141,51.519332,5.857852,13.5,0.0,0.0,0.17,13.8,13.8,5.1,0.78,14118,2020-09-29 13:55:32,2020-09-29 15:55:32.726,12,0,0,15.988,51.519331,5.85785,0.0,0.0,0.0,-2.5,-3.9,-16.7,0,1,0,98,97,-10944,5546,15988,2951.5,35,GPS,1,0,0,0,0,0,0,1601387732725,4008,4005,4037,4032,0,0,23,,,,,,,0,0,0,25.0,-39.0,-167.0,0.0,0.0,-168.0,6,135.0,0.0,1.7,0.0,0.0,0.0,0,,,100,100,0,2,0,0,0,0,0,,,,,0.0,0.0,0
142,51.519332,5.857852,13.5,0.0,0.0,0.16,13.8,13.8,5.1,0.78,14200,2020-09-29 13:55:32,2020-09-29 15:55:32.808,12,0,0,15.978,51.519331,5.85785,0.0,0.0,0.0,-2.3,-4.2,-16.7,0,1,0,98,97,-10776,5546,15978,2951.5,35,GPS,1,0,0,0,0,0,0,1601387732807,4008,4005,4037,4032,0,0,23,,,,,,,0,0,0,23.0,-42.0,-167.0,0.0,0.0,-168.0,6,135.0,0.0,1.56,0.0,0.0,0.0,0,,,100,100,0,2,0,0,0,0,0,,,,,0.0,0.0,0
143,51.519332,5.857852,13.5,0.0,0.0,0.16,13.8,13.8,5.1,0.78,14327,2020-09-29 13:55:32,2020-09-29 15:55:32.935,12,0,0,15.978,51.519331,5.85785,0.0,0.0,0.0,-2.2,-4.1,-16.7,0,1,0,98,97,-10776,5546,15978,2951.5,35,GPS,1,0,0,0,0,0,0,1601387732934,4008,4005,4037,4032,0,0,23,,,,,,,0,0,0,22.0,-41.0,-167.0,0.0,0.0,-168.0,6,135.0,0.0,1.59,0.0,0.0,0.0,0,,,100,100,0,2,0,0,0,0,0,,,,,0.0,0.0,0
144,51.519332,5.857852,13.5,0.0,0.0,0.16,13.8,13.8,5.1,0.78,14404,2020-09-29 13:55:33,2020-09-29 15:55:33.012,12,0,0,15.978,51.519331,5.85785,0.0,0.0,0.0,-2.4,-3.9,-16.8,0,1,0,98,97,-10776,5546,15978,2951.5,35,GPS,1,0,0,0,0,0,0,1601387733011,4008,4005,4037,4032,0,0,23,,,,,,,0,0,0,24.0,-39.0,-168.0,0.0,0.0,-168.0,6,135.0,0.0,1.62,0.0,0.0,0.0,0,,,100,100,0,2,0,0,0,0,0,,,,,0.0,0.0,0
145,51.519332,5.857852,13.5,0.0,0.0,0.16,13.8,13.8,5.1,0.78,14530,2020-09-29 13:55:33,2020-09-29 15:55:33.137,12,0,0,15.978,51.519331,5.85785,0.0,0.0,0.0,-2.5,-4.1,-16.8,0,1,0,98,97,-10776,5546,15978,2951.5,35,GPS,1,0,0,0,0,0,0,1601387733137,4008,4005,4037,4032,0,0,23,,,,,,,0,0,0,25.0,-41.0,-168.0,0.0,0.0,-168.0,6,135.0,0.0,1.63,0.0,0.0,0.0,0,,,100,100,0,2,0,0,0,0,0,,,,,0.0,0.0,0
146,51.519332,5.857852,13.5,0.0,0.0,0.17,13.8,13.8,5.1,0.78,14614,2020-09-29 13:55:33,2020-09-29 15:55:33.222,12,0,0,15.978,51.519331,5.85785,0.0,0.0,0.0,-2.3,-3.9,-16.7,0,1,0,98,97,-10776,5546,15978,2951.5,35,GPS,1,0,0,0,0,0,0,1601387733221,4008,4005,4037,4032,0,0,23,,,,,,,0,0,0,23.0,-39.0,-167.0,0.0,0.0,-168.0,6,135.0,0.0,1.74,0.0,0.0,0.0,0,,,100,100,0,2,0,0,0,0,0,,,,,0.0,0.0,0
147,51.519332,5.857852,13.5,0.0,0.0,0.18,13.8,13.8,5.1,0.78,14712,2020-09-29 13:55:33,2020-09-29 15:55:33.320,12,0,0,15.978,51.519331,5.85785,0.0,0.0,0.0,-2.3,-3.8,-16.7,0,1,0,98,97,-10776,5546,15978,2951.5,35,GPS,1,0,0,0,0,0,0,1601387733319,4008,4005,4037,4032,0,0,23,,,,,,,0,0,0,23.0,-38.0,-167.0,0.0,0.0,-168.0,6,135.0,0.0,1.77,0.0,0.0,0.0,0,,,100,100,0,2,0,0,0,0,0,,,,,0.0,0.0,0
148,51.519332,5.857852,13.5,0.0,0.0,0.18,13.8,13.8,5.1,0.78,14829,2020-09-29 13:55:33,2020-09-29 15:55:33.437,12,0,0,15.978,51.519331,5.85785,0.0,0.0,0.0,-2.1,-3.7,-16.7,0,1,0,98,97,-10776,5546,15978,2951.5,35,GPS,1,0,0,0,0,0,0,1601387733436,4008,4005,4037,4032,0,0,23,,,,,,,0,0,0,21.0,-37.0,-167.0,0.0,0.0,-168.0,6,135.0,0.0,1.8,0.0,0.0,0.0,0,,,100,100,0,2,0,0,0,0,0,,,,,0.0,0.0,0
149,51.519332,5.857852,13.5,0.0,0.0,0.18,13.8,13.8,5.1,0.78,14933,2020-09-29 13:55:33,2020-09-29 15:55:33.541,12,0,0,15.978,51.519331,5.85785,0.0,0.0,0.0,-2.0,-3.5,-16.7,0,1,0,98,97,-10776,5546,15978,2951.5,35,GPS,1,0,0,0,0,0,0,1601387733540,4008,4005,4037,4032,0,0,23,,,,,,,0,0,0,20.0,-35.0,-167.0,0.0,0.0,-168.0,6,135.0,0.0,1.8,0.0,0.0,0.0,0,,,100,100,0,2,0,0,0,0,0,,,,,0.0,0.0,0
150,51.519332,5.857852,13.5,0.0,0.0,0.18,13.8,13.8,5.1,0.78,15034,2020-09-29 13:55:33,2020-09-29 15:55:33.642,12,0,0,15.978,51.519331,5.85785,0.0,0.0,0.0,-1.9,-3.7,-16.7,0,1,0,98,97,-10776,5546,15978,2951.5,35,GPS,1,0,0,0,0,0,0,1601387733641,4008,4005,4037,4032,0,0,23,,,,,,,0,0,0,19.0,-37.0,-167.0,0.0,0.0,-168.0,6,135.0,0.0,1.8,0.0,0.0,0.0,0,,,100,100,0,2,0,0,0,0,0,,,,,0.0,0.0,0
151,51.519332,5.857852,13.5,0.0,0.1,0.18,13.8,13.8,5.1,0.78,15117,2020-09-29 13:55:33,2020-09-29 15:55:33.725,12,0,0,15.978,51.519331,5.85785,0.0,0.0,0.1,-2.0,-3.4,-16.7,0,1,0,98,97,-10776,5546,15978,2951.5,35,GPS,1,0,0,0,0,0,0,1601387733724,4008,4005,4037,4032,0,0,23,,,,,,,0,0,0,20.0,-34.0,-167.0,0.0,0.0,-168.0,6,135.0,1.0,1.83,0.0,0.0,1.0,0,,,100,100,0,2,0,0,0,0,0,,,,,0.0,0.0,0
152,51.519332,5.857852,13.5,0.0,0.0,0.18,13.8,13.8,5.1,0.78,15218,2020-09-29 13:55:33,2020-09-29 15:55:33.825,12,0,0,15.974,51.519331,5.85785,0.0,0.0,0.0,-2.2,-3.2,-16.7,0,1,0,98,97,-10870,5546,15974,2951.5,35,GPS,1,0,0,0,0,0,0,1601387733825,4008,4005,4037,4032,0,0,23,,,,,,,0,0,0,22.0,-32.0,-167.0,0.0,0.0,-168.0,6,135.0,0.0,1.81,0.0,0.0,0.0,0,,,100,100,0,2,0,0,0,0,0,,,,,0.0,0.0,0
153,51.519332,5.857852,13.5,0.0,0.0,0.18,13.8,13.8,5.1,0.78,15318,2020-09-29 13:55:33,2020-09-29 15:55:33.926,12,0,0,15.974,51.519331,5.85785,0.0,0.0,0.0,-2.2,-3.2,-16.7,0,1,0,98,97,-10870,5546,15974,2951.5,35,GPS,1,0,0,0,0,0,0,1601387733925,4008,4005,4037,4032,0,0,23,,,,,,,0,0,0,22.0,-32.0,-167.0,0.0,0.0,-168.0,6,135.0,0.0,1.76,0.0,0.0,0.0,0,,,100,100,0,2,0,0,0,0,0,,,,,0.0,0.0,0
