,latitude,longitude,altitude(m),ultrasonicHeight(m),speed(mps),distance(m),max_altitude(m),max_ascent(m),max_speed(mps),max_distance(m),time(millisecond),datetime(utc),datetime(local),satellites,pressure(Pa),temperature(F),voltage(v),home_latitude,home_longitude,velocityX(mps),velocityY(mps),velocityZ(mps),pitch(deg),roll(deg),yaw(deg),powerlevel,isflying,istakingphoto,remainPowerPercent,remainLifePercent,currentCurrent,currentElectricity,currentVoltage,batteryTemperature,dischargeCount,flightmode,isMotorsOn,isTakingVideo,Rc_elevator,Rc_aileron,Rc_throttle,Rc_rudder,Rc_gyro,timestamp,Battery_Cell1,Battery_Cell2,Battery_Cell3,Battery_Cell4,Battery_Cell5,Battery_Cell6,Dronetype,AppVersion,Planename,FlyControllerSerialNumber,RemoteSerialNumber,BatterySerialNumber,CENTER_BATTERY.productDate,CENTER_BATTERY.serialNo,CENTER_BATTERY.fullCapacity,CENTER_BATTERY.productDateRaw,pitchRaw,rollRaw,yawRaw,gimbalPitchRaw,gimbalRollRaw,gimbalYawRaw,flyState,altitudeRaw,speedRaw,distanceRaw,velocityXRaw,velocityYRaw,velocityZRaw,data_reuse,App_Tip,App_Warning,downlinkSignalQuality,uplinkSignalQuality,transmissionChannel,rcModeSwitch,rcHome,rcPause,rcTransform,rcJoystickMode,appMode,FlyControllerSerialNumber_legacy,RemoteSerialNumber_legacy,BatterySerialNumber_legacy,Battery2SerialNumber,frontAvoidDist,backAvoidDist,isBrakingToAvoid
0,51.519522,5.858087,0.2,0.0,2.6,0.12,0.2,0.2,2.6,0.12,0,2020-09-29 13:18:15,2020-09-29 15:18:15.125,19,0,0,12.713,51.519521,5.858086,0.0,0.0,-2.6,-1.5,1.7,157.4,0,1,0,97,100,-3836,3677,12713,2961.5,7,GPS,1,0,0,0,660,0,0,1601385495124,4229,4225,4224,0,0,0,13,Litchi_iOS_2.8.0,aladrian-MAVIC PRO,08RDEAJP01043R,08XUEB30061XN3,093AEB303309LC,,0,3760,0,15.0,17.0,1574.0,0.0,0.0,1581.0,6,2.0,26.0,1.24,0.0,0.0,-26.0,0,,,100,100,0,1,0,0,0,0,0,(null),(null),(null),(null),0.0,0.0,0
1,51.519522,5.858087,0.4,0.0,2.7,0.14,0.4,0.4,2.7,0.14,116,2020-09-29 13:18:15,2020-09-29 15:18:15.240,19,0,0,12.713,51.519521,5.858086,0.0,0.0,-2.7,-0.2,1.8,157.4,0,1,0,97,100,-3836,3677,12713,2961.5,7,GPS,1,0,0,0,660,0,0,1601385495240,4229,4225,4224,0,0,0,13,,,,,,,0,0,0,2.0,18.0,1574.0,0.0,0.0,1581.0,6,4.0,27.0,1.37,0.0,0.0,-27.0,0,,,100,100,0,1,0,0,0,0,0,,,,,0.0,0.0,0
2,51.519522,5.858087,0.7,1.5,3.1,0.15,0.7,0.7,3.1,0.15,213,2020-09-29 13:18:15,2020-09-29 15:18:15.338,19,0,0,12.713,51.519521,5.858086,0.0,0.0,-3.1,-0.1,1.5,157.6,0,1,0,97,100,-3836,3677,12713,2961.5,7,GPS,1,0,0,0,660,0,0,1601385495337,4229,4225,4224,0,0,0,13,,,,,,,0,0,0,1.0,15.0,1576.0,0.0,0.0,1581.0,6,7.0,31.0,1.49,0.0,0.0,-31.0,0,,,100,100,0,1,0,0,0,0,0,,,,,0.0,0.0,0
3,51.519522,5.858087,1.1,1.9,3.5,0.16,1.1,1.1,3.5,0.16,298,2020-09-29 13:18:15,2020-09-29 15:18:15.422,18,0,0,12.713,51.519521,5.858086,0.0,0.0,-3.5,-0.6,2.0,157.6,0,1,0,97,100,-3836,3677,12713,2961.5,7,GPS,1,0,0,0,660,0,0,1601385495422,4229,4225,4224,0,0,0,13,,,,,,,0,0,0,6.0,20.0,1576.0,0.0,0.0,1581.0,6,11.0,35.0,1.57,0.0,0.0,-35.0,0,,,100,100,0,1,0,0,0,0,0,,,,,0.0,0.0,0
4,51.519522,5.858087,1.4,2.3,3.8,0.17,1.4,1.4,3.8,0.17,416,2020-09-29 13:18:15,2020-09-29 15:18:15.540,18,0,0,12.713,51.519521,5.858086,0.1,0.0,-3.8,-1.4,1.6,157.7,0,1,0,97,100,-3836,3677,12713,2961.5,7,GPS,1,0,0,0,660,0,0,1601385495540,4229,4225,4224,0,0,0,13,,,,,,,0,0,0,14.0,16.0,1577.0,0.0,0.0,1581.0,6,14.0,38.01,1.65,1.0,0.0,-38.0,0,,,100,100,0,1,0,0,0,0,0,,,,,0.0,0.0,0
5,51.519522,5.858087,1.8,2.7,4.0,0.17,1.8,1.8,4.0,0.17,502,2020-09-29 13:18:15,2020-09-29 15:18:15.626,19,0,0,12.713,51.519521,5.858086,0.1,0.0,-4.0,-1.7,1.1,157.8,0,1,0,97,100,-3836,3677,12713,2961.5,7,GPS,1,0,0,0,660,0,0,1601385495626,4229,4225,4224,0,0,0,13,,,,,,,0,0,0,17.0,11.0,1578.0,0.0,0.0,1581.0,6,18.0,40.01,1.71,1.0,0.0,-40.0,0,,,100,100,0,1,0,0,0,0,0,,,,,0.0,0.0,0
6,51.519522,5.858087,2.3,3.1,4.1,0.18,2.3,2.3,4.1,0.18,590,2020-09-29 13:18:15,2020-09-29 15:18:15.715,19,0,0,12.713,51.519521,5.858086,0.1,0.0,-4.1,-2.5,1.0,157.9,0,1,0,97,100,-3836,3677,12713,2961.5,7,GPS,1,0,0,0,660,0,0,1601385495714,4229,4225,4224,0,0,0,13,,,,,,,0,0,0,25.0,10.0,1579.0,0.0,0.0,1581.0,6,23.0,41.01,1.8,1.0,0.0,-41.0,0,,,100,100,0,1,0,0,0,0,0,,,,,0.0,0.0,0
7,51.519523,5.858087,2.7,3.5,4.1,0.2,2.7,2.7,4.1,0.2,701,2020-09-29 13:18:15,2020-09-29 15:18:15.825,19,0,0,12.713,51.519521,5.858086,0.0,0.0,-4.1,-2.6,1.2,157.9,0,1,0,97,100,-3836,3677,12713,2961.5,7,GPS,1,0,0,0,660,0,0,1601385495825,4229,4225,4224,0,0,0,13,,,,,,,0,0,0,26.0,12.0,1579.0,0.0,0.0,1581.0,6,27.0,41.0,2.0,0.0,0.0,-41.0,0,,,100,100,0,1,0,0,0,0,0,,,,,0.0,0.0,0
8,51.519523,5.858087,3.1,3.9,4.1,0.22,3.1,3.1,4.1,0.22,791,2020-09-29 13:18:15,2020-09-29 15:18:15.915,19,0,0,12.713,51.519521,5.858086,0.0,0.0,-4.1,-2.7,1.4,157.9,0,1,0,97,100,-3836,3677,12713,2961.5,7,GPS,1,0,0,0,0,0,0,1601385495915,4229,4225,4224,0,0,0,13,,,,,,,0,0,0,27.0,14.0,1579.0,0.0,0.0,1581.0,6,31.0,41.0,2.19,0.0,0.0,-41.0,0,,,100,100,0,1,0,0,0,0,0,,,,,0.0,0.0,0
9,51.519523,5.858087,3.5,4.4,4.0,0.24,3.5,3.5,4.1,0.24,900,2020-09-29 13:18:16,2020-09-29 15:18:16.025,18,0,0,12.713,51.519521,5.858086,0.0,0.0,-4.0,-2.9,1.8,158.1,0,1,0,97,100,-3836,3677,12713,2961.5,7,GPS,1,0,0,0,0,0,0,1601385496024,4229,4225,4224,0,0,0,13,,,,,,,0,0,0,29.0,18.0,1581.0,0.0,0.0,1581.0,6,35.0,40.0,2.35,0.0,0.0,-40.0,0,,,100,100,0,1,0,0,0,0,0,,,,,0.0,0.0,0
10,51.519523,5.858087,3.9,4.8,3.7,0.25,3.9,3.9,4.1,0.25,1004,2020-09-29 13:18:16,2020-09-29 15:18:16.129,18,0,0,12.713,51.519521,5.858086,0.0,0.0,-3.7,-2.9,2.1,158.1,0,1,0,97,100,-3836,3677,12713,2961.5,7,GPS,1,0,0,0,0,0,0,1601385496128,4229,4225,4224,0,0,0,13,,,,,,,0,0,0,29.0,21.0,1581.0,0.0,0.0,1581.0,6,39.0,37.0,2.5,0.0,0.0,-37.0,0,,,100,100,0,1,0,0,0,0,0,,,,,11.3,0.0,0
11,51.519523,5.858086,4.3,5.2,3.5,0.26,4.3,4.3,4.1,0.26,1106,2020-09-29 13:18:16,2020-09-29 15:18:16.231,18,0,0,12.713,51.519521,5.858086,0.0,0.0,-3.5,-2.7,1.9,158.1,0,1,0,97,100,-3836,3677,12713,2961.5,7,GPS,1,0,0,0,0,0,0,1601385496230,4229,4225,4224,0,0,0,13,,,,,,,0,0,0,27.0,19.0,1581.0,0.0,0.0,1581.0,6,43.0,35.0,2.63,0.0,0.0,-35.0,0,,,100,100,0,1,0,0,0,0,0,,,,,11.3,0.0,0
12,51.519523,5.858086,4.6,5.5,3.2,0.28,4.6,4.6,4.1,0.28,1202,2020-09-29 13:18:16,2020-09-29 15:18:16.327,18,0,0,12.713,51.519521,5.858086,0.0,0.0,-3.2,-2.7,2.0,158.1,0,1,0,97,100,-3836,3677,12713,2961.5,7,GPS,1,0,0,0,0,0,0,1601385496326,4229,4225,4224,0,0,0,13,,,,,,,0,0,0,27.0,20.0,1581.0,0.0,0.0,1581.0,6,46.0,32.0,2.77,0.0,0.0,-32.0,0,,,100,100,0,1,0,0,0,0,0,,,,,0.0,0.0,0
13,51.519523,5.858086,4.9,5.9,2.8,0.28,4.9,4.9,4.1,0.28,1300,2020-09-29 13:18:16,2020-09-29 15:18:16.424,19,0,0,12.713,51.519521,5.858086,0.0,0.0,-2.8,-2.8,2.4,158.1,0,1,0,97,100,-3836,3677,12713,2961.5,7,GPS,1,0,0,0,0,0,0,1601385496424,4229,4225,4224,0,0,0,13,,,,,,,0,0,0,28.0,24.0,1581.0,0.0,0.0,1581.0,6,49.0,28.0,2.85,0.0,0.0,-28.0,0,,,100,100,0,1,0,0,0,0,0,,,,,0.0,0.0,0
14,51.519524,5.858086,5.1,6.2,2.3,0.29,5.1,5.1,4.1,0.29,1400,2020-09-29 13:18:16,2020-09-29 15:18:16.524,19,0,0,12.713,51.519521,5.858086,0.0,0.0,-2.3,-2.9,2.7,158.1,0,1,0,97,100,-3836,3677,12713,2961.5,7,GPS,1,0,0,0,0,0,0,1601385496524,4229,4225,4224,0,0,0,13,,,,,,,0,0,0,29.0,27.0,1581.0,0.0,0.0,1581.0,6,51.0,23.0,2.94,0.0,0.0,-23.0,0,,,100,100,0,1,0,0,0,0,0,,,,,0.0,0.0,0
15,51.519524,5.858086,5.4,6.4,1.9,0.31,5.4,5.4,4.1,0.31,1500,2020-09-29 13:18:16,2020-09-29 15:18:16.625,19,0,0,12.713,51.519521,5.858086,0.0,0.0,-1.9,-3.2,2.7,158.1,0,1,0,97,100,-3836,3677,12713,2961.5,7,GPS,1,0,0,0,0,0,0,1601385496624,4229,4225,4224,0,0,0,13,,,,,,,0,0,0,32.0,27.0,1581.0,0.0,0.0,1581.0,6,54.0,19.0,3.07,0.0,0.0,-19.0,0,,,100,100,0,1,0,0,0,0,0,,,,,0.0,0.0,0
16,51.519524,5.858086,5.5,6.6,1.5,0.32,5.5,5.5,4.1,0.32,1604,2020-09-29 13:18:16,2020-09-29 15:18:16.728,19,0,0,11.852,51.519521,5.858086,0.0,0.0,-1.5,-3.7,2.6,158.0,0,1,0,97,100,-11802,3673,11852,2971.5,7,GPS,1,0,0,0,0,0,0,1601385496728,4229,4225,4224,0,0,0,13,,,,,,,0,0,0,37.0,26.0,1580.0,0.0,0.0,1581.0,6,55.0,15.0,3.21,0.0,0.0,-15.0,0,,,100,100,0,1,0,0,0,0,0,,,,,0.0,0.0,0
17,51.519524,5.858087,5.7,6.8,1.1,0.33,5.7,5.7,4.1,0.33,1707,2020-09-29 13:18:16,2020-09-29 15:18:16.832,19,0,0,11.852,51.519521,5.858086,0.1,0.0,-1.1,-3.9,2.6,158.0,0,1,0,97,100,-11802,3673,11852,2971.5,7,GPS,1,0,0,0,0,0,0,1601385496831,4229,4225,4224,0,0,0,13,,,,,,,0,0,0,39.0,26.0,1580.0,0.0,0.0,1581.0,6,57.0,11.05,3.31,1.0,0.0,-11.0,0,,,100,100,0,1,0,0,0,0,0,,,,,0.0,0.0,0
18,51.519524,5.858087,5.8,7.0,0.61,0.34,5.8,5.8,4.1,0.34,1803,2020-09-29 13:18:16,2020-09-29 15:18:16.928,19,0,0,11.852,51.519521,5.858086,0.1,0.0,-0.6,-4.0,2.9,158.0,0,1,0,97,100,-11802,3673,11852,2971.5,7,GPS,1,0,0,0,0,0,0,1601385496927,4229,4225,4224,0,0,0,13,,,,,,,0,0,0,40.0,29.0,1580.0,0.0,0.0,1581.0,6,58.0,6.08,3.42,1.0,0.0,-6.0,0,,,100,100,0,1,0,0,0,0,0,,,,,0.0,0.0,0
19,51.519524,5.858087,5.8,7.1,0.32,0.34,5.8,5.8,4.1,0.34,1903,2020-09-29 13:18:17,2020-09-29 15:18:17.028,19,0,0,11.852,51.519521,5.858086,0.1,0.0,-0.3,-3.9,3.0,158.0,0,1,0,97,100,-11802,3673,11852,2971.5,7,GPS,1,0,0,0,0,0,0,1601385497027,4229,4225,4224,0,0,0,13,,,,,,,0,0,0,39.0,30.0,1580.0,0.0,0.0,1581.0,6,58.0,3.16,3.45,1.0,0.0,-3.0,0,,,100,100,0,1,0,0,0,0,0,,,,,0.0,0.0,0
20,51.519524,5.858087,5.8,7.1,0.1,0.35,5.8,5.8,4.1,0.35,2001,2020-09-29 13:18:17,2020-09-29 15:18:17.125,19,0,0,11.852,51.519521,5.858086,0.1,0.0,0.0,-3.7,3.0,157.9,0,1,0,97,100,-11802,3673,11852,2971.5,7,GPS,1,0,0,0,0,0,0,1601385497125,4229,4225,4224,0,0,0,13,,,,,,,0,0,0,37.0,30.0,1579.0,0.0,0.0,1581.0,6,58.0,1.0,3.48,1.0,0.0,0.0,0,,,100,100,0,1,0,0,0,0,0,,,,,0.0,0.0,0
21,51.519524,5.858087,5.8,7.2,0.1,0.35,5.8,5.8,4.1,0.35,2101,2020-09-29 13:18:17,2020-09-29 15:18:17.225,19,0,0,11.852,51.519521,5.858086,0.1,0.0,0.0,-3.6,3.1,157.9,0,1,0,97,100,-11802,3673,11852,2971.5,7,GPS,1,0,0,0,0,0,0,1601385497225,4229,4225,4224,0,0,0,13,,,,,,,0,0,0,36.0,31.0,1579.0,0.0,0.0,1581.0,6,58.0,1.0,3.46,1.0,0.0,0.0,0,,,100,100,0,1,0,0,0,0,0,,,,,0.0,0.0,0
22,51.519524,5.858087,5.8,7.2,0.14,0.35,5.8,5.8,4.1,0.35,2202,2020-09-29 13:18:17,2020-09-29 15:18:17.326,19,0,0,11.852,51.519521,5.858086,0.1,0.0,0.1,-3.7,2.9,158.0,0,1,0,97,100,-11802,3673,11852,2971.5,7,GPS,1,0,0,0,0,0,0,1601385497326,4229,4225,4224,0,0,0,13,,,,,,,0,0,0,37.0,29.0,1580.0,0.0,0.0,1581.0,6,58.0,1.41,3.46,1.0,0.0,1.0,0,,,100,100,0,1,0,0,0,0,0,,,,,0.0,0.0,0
23,51.519524,5.858087,5.8,7.3,0.1,0.35,5.8,5.8,4.1,0.35,2299,2020-09-29 13:18:17,2020-09-29 15:18:17.424,19,0,0,11.852,51.519521,5.858086,0.1,0.0,0.0,-4.0,3.0,158.0,0,1,0,97,100,-11802,3673,11852,2971.5,7,GPS,1,0,0,0,0,0,0,1601385497423,4229,4225,4224,0,0,0,13,,,,,,,0,0,0,40.0,30.0,1580.0,0.0,0.0,1581.0,6,58.0,1.0,3.49,1.0,0.0,0.0,0,,,100,100,0,1,0,0,0,0,0,,,,,0.0,0.0,0
24,51.519524,5.858087,5.8,7.3,0.1,0.35,5.8,5.8,4.1,0.35,2399,2020-09-29 13:18:17,2020-09-29 15:18:17.524,19,0,0,11.852,51.519521,5.858086,0.1,0.0,0.0,-4.2,3.0,158.0,0,1,0,97,100,-11802,3673,11852,2971.5,7,GPS,1,0,0,0,0,0,0,1601385497523,4229,4225,4224,0,0,0,13,,,,,,,0,0,0,42.0,30.0,1580.0,0.0,0.0,1581.0,6,58.0,1.0,3.51,1.0,0.0,0.0,0,,,100,100,0,1,0,0,0,0,0,,,,,0.0,0.0,0
25,51.519524,5.858087,5.8,7.3,0.1,0.36,5.8,5.8,4.1,0.36,2500,2020-09-29 13:18:17,2020-09-29 15:18:17.625,19,0,0,11.852,51.519521,5.858086,0.1,0.0,0.0,-4.4,3.0,158.0,0,1,0,97,100,-11802,3673,11852,2971.5,7,GPS,1,0,0,0,0,0,0,1601385497624,4229,4225,4224,0,0,0,13,,,,,,,0,0,0,44.0,30.0,1580.0,0.0,0.0,1581.0,6,58.0,1.0,3.55,1.0,0.0,0.0,0,,,100,100,0,1,0,0,0,0,0,,,,,0.0,0.0,0
26,51.519524,5.858087,5.8,7.4,0.0,0.36,5.8,5.8,4.1,0.36,2593,2020-09-29 13:18:17,2020-09-29 15:18:17.717,19,0,0,11.852,51.519521,5.858086,0.0,0.0,0.0,-4.4,3.2,158.0,0,1,0,97,100,-11802,3673,11852,2971.5,7,GPS,1,0,0,0,0,0,0,1601385497717,4229,4225,4224,0,0,0,13,,,,,,,0,0,0,44.0,32.0,1580.0,0.0,0.0,1581.0,6,58.0,0.0,3.56,0.0,0.0,0.0,0,,,100,100,0,1,0,0,0,0,0,,,,,0.0,0.0,0
27,51.519524,5.858087,5.8,7.4,0.0,0.36,5.8,5.8,4.1,0.36,2702,2020-09-29 13:18:17,2020-09-29 15:18:17.827,19,0,0,11.852,51.519521,5.858086,0.0,0.0,0.0,-4.5,3.4,157.9,0,1,0,97,100,-11802,3673,11852,2971.5,7,GPS,1,0,0,0,0,0,0,1601385497826,4229,4225,4224,0,0,0,13,,,,,,,0,0,0,45.0,34.0,1579.0,0.0,0.0,1581.0,6,58.0,0.0,3.6,0.0,0.0,0.0,0,,,100,100,0,1,0,0,0,0,0,,,,,0.0,0.0,0
28,51.519524,5.858087,5.8,7.4,0.0,0.36,5.8,5.8,4.1,0.36,2796,2020-09-29 13:18:17,2020-09-29 15:18:17.920,19,0,0,11.852,51.519521,5.858086,0.0,0.0,0.0,-4.4,3.3,157.9,0,1,0,97,100,-11802,3673,11852,2971.5,7,GPS,1,0,0,0,0,0,0,1601385497920,4229,4225,4224,0,0,0,13,,,,,,,0,0,0,44.0,33.0,1579.0,0.0,0.0,1581.0,6,58.0,0.0,3.59,0.0,0.0,0.0,0,,,100,100,0,1,0,0,0,0,0,,,,,0.0,0.0,0
29,51.519524,5.858087,5.8,7.4,0.0,0.36,5.8,5.8,4.1,0.36,2894,2020-09-29 13:18:18,2020-09-29 15:18:18.019,19,0,0,11.852,51.519521,5.858086,0.0,0.0,0.0,-4.4,3.0,157.9,0,1,0,97,100,-11802,3673,11852,2971.5,7,GPS,1,0,0,0,0,0,0,1601385498018,4229,4225,4224,0,0,0,13,,,,,,,0,0,0,44.0,30.0,1579.0,0.0,0.0,1581.0,6,58.0,0.0,3.57,0.0,0.0,0.0,0,,,100,100,0,1,0,0,0,0,0,,,,,0.0,0.0,0
30,51.519524,5.858087,5.9,7.4,0.0,0.35,5.9,5.9,4.1,0.36,2993,2020-09-29 13:18:18,2020-09-29 15:18:18.117,19,0,0,11.852,51.519521,5.858086,0.0,0.0,0.0,-4.1,2.9,157.9,0,1,0,97,100,-11802,3673,11852,2971.5,7,GPS,1,0,0,0,0,0,0,1601385498117,4229,4225,4224,0,0,0,13,,,,,,,0,0,0,41.0,29.0,1579.0,0.0,0.0,1581.0,6,59.0,0.0,3.51,0.0,0.0,0.0,0,,,100,100,0,1,0,0,0,0,0,,,,,0.0,0.0,0
31,51.519524,5.858087,5.9,7.4,0.0,0.34,5.9,5.9,4.1,0.36,3095,2020-09-29 13:18:18,2020-09-29 15:18:18.220,19,0,0,11.852,51.519521,5.858086,0.0,0.0,0.0,-3.7,2.5,157.9,0,1,0,97,100,-11802,3673,11852,2971.5,7,GPS,1,0,0,0,0,0,0,1601385498219,4229,4225,4224,0,0,0,13,,,,,,,0,0,0,37.0,25.0,1579.0,0.0,0.0,1581.0,6,59.0,0.0,3.41,0.0,0.0,0.0,0,,,100,100,0,1,0,0,0,0,0,,,,,0.0,0.0,0
32,51.519524,5.858087,5.9,7.5,0.0,0.33,5.9,5.9,4.1,0.36,3195,2020-09-29 13:18:18,2020-09-29 15:18:18.319,19,0,0,11.852,51.519521,5.858086,0.0,0.0,0.0,-3.5,2.5,158.0,0,1,0,97,100,-11802,3673,11852,2971.5,7,GPS,1,0,0,0,0,0,0,1601385498319,4229,4225,4224,0,0,0,13,,,,,,,0,0,0,35.0,25.0,1580.0,0.0,0.0,1581.0,6,59.0,0.0,3.3,0.0,0.0,0.0,0,,,100,100,0,1,0,0,0,0,0,,,,,0.0,0.0,0
33,51.519524,5.858087,5.9,7.5,0.0,0.32,5.9,5.9,4.1,0.36,3302,2020-09-29 13:18:18,2020-09-29 15:18:18.427,19,0,0,11.852,51.519521,5.858086,0.0,0.0,0.0,-3.2,2.5,158.0,0,1,0,97,100,-11802,3673,11852,2971.5,7,GPS,1,0,0,0,0,0,0,1601385498426,4229,4225,4224,0,0,0,13,,,,,,,0,0,0,32.0,25.0,1580.0,0.0,0.0,1581.0,6,59.0,0.0,3.2,0.0,0.0,0.0,0,,,100,100,0,1,0,0,0,0,0,,,,,0.0,0.0,0
34,51.519524,5.858087,5.9,7.5,0.1,0.31,5.9,5.9,4.1,0.36,3408,2020-09-29 13:18:18,2020-09-29 15:18:18.532,19,0,0,11.852,51.519521,5.858086,-0.1,0.0,0.0,-2.9,2.7,158.0,0,1,0,97,100,-11802,3673,11852,2971.5,7,GPS,1,0,0,0,0,0,0,1601385498532,4229,4225,4224,0,0,0,13,,,,,,,0,0,0,29.0,27.0,1580.0,0.0,0.0,1581.0,6,59.0,1.0,3.09,-1.0,0.0,0.0,0,,,100,100,0,1,0,0,0,0,0,,,,,0.0,0.0,0
35,51.519524,5.858086,5.9,7.5,0.1,0.29,5.9,5.9,4.1,0.36,3501,2020-09-29 13:18:18,2020-09-29 15:18:18.626,19,0,0,11.852,51.519521,5.858086,-0.1,0.0,0.0,-2.6,2.7,158.1,0,1,0,97,100,-11802,3673,11852,2971.5,7,GPS,1,0,0,0,0,0,0,1601385498625,4229,4225,4224,0,0,0,13,,,,,,,0,0,0,26.0,27.0,1581.0,0.0,0.0,1581.0,6,59.0,1.0,2.94,-1.0,0.0,0.0,0,,,100,100,0,1,0,0,0,0,0,,,,,0.0,0.0,0
36,51.519523,5.858086,5.9,7.5,0.1,0.28,5.9,5.9,4.1,0.36,3605,2020-09-29 13:18:18,2020-09-29 15:18:18.730,19,0,0,12.282,51.519521,5.858086,-0.1,0.0,0.0,-2.3,2.5,158.1,0,1,0,97,100,-7200,3665,12282,2971.5,7,GPS,1,0,0,0,0,0,0,1601385498729,4229,4225,4224,0,0,0,13,,,,,,,0,0,0,23.0,25.0,1581.0,0.0,0.0,1581.0,6,59.0,1.0,2.79,-1.0,0.0,0.0,0,,,100,100,0,1,0,0,0,0,0,,,,,0.0,0.0,0
37,51.519523,5.858086,5.9,7.5,0.1,0.27,5.9,5.9,4.1,0.36,3692,2020-09-29 13:18:18,2020-09-29 15:18:18.817,19,0,0,12.282,51.519521,5.858086,-0.1,0.0,0.0,-2.1,2.3,158.2,0,1,0,97,100,-7200,3665,12282,2971.5,7,GPS,1,0,0,0,0,0,0,1601385498816,4229,4225,4224,0,0,0,13,,,,,,,0,0,0,21.0,23.0,1582.0,0.0,0.0,1581.0,6,59.0,1.0,2.65,-1.0,0.0,0.0,0,,,100,100,0,1,0,0,0,0,0,,,,,0.0,0.0,0
38,51.519523,5.858086,5.9,7.5,0.1,0.25,5.9,5.9,4.1,0.36,3835,2020-09-29 13:18:18,2020-09-29 15:18:18.960,19,0,0,12.282,51.519521,5.858086,-0.1,0.0,0.0,-2.0,2.1,158.2,0,1,0,97,100,-7200,3665,12282,2971.5,7,GPS,1,0,0,0,0,0,0,1601385498959,4229,4225,4224,0,0,0,13,,,,,,,0,0,0,20.0,21.0,1582.0,0.0,0.0,1581.0,6,59.0,1.0,2.54,-1.0,0.0,0.0,0,,,100,100,0,1,0,0,0,0,0,,,,,0.0,0.0,0
39,51.519523,5.858086,5.9,7.5,0.1,0.24,5.9,5.9,4.1,0.36,3901,2020-09-29 13:18:19,2020-09-29 15:18:19.026,19,0,0,12.282,51.519521,5.858086,-0.1,0.0,0.0,-2.0,2.1,158.2,0,1,0,97,100,-7200,3665,12282,2971.5,7,GPS,1,0,0,0,0,0,0,1601385499025,4229,4225,4224,0,0,0,13,,,,,,,0,0,0,20.0,21.0,1582.0,0.0,0.0,1581.0,6,59.0,1.0,2.45,-1.0,0.0,0.0,0,,,100,100,0,1,0,0,0,0,0,,,,,0.0,0.0,0
40,51.519523,5.858086,5.9,7.5,0.1,0.24,5.9,5.9,4.1,0.36,4000,2020-09-29 13:18:19,2020-09-29 15:18:19.125,19,0,0,12.282,51.519521,5.858086,-0.1,0.0,0.0,-1.9,2.0,158.2,0,1,0,97,100,-7200,3665,12282,2971.5,7,GPS,1,0,0,0,0,0,0,1601385499124,4229,4225,4224,0,0,0,13,,,,,,,0,0,0,19.0,20.0,1582.0,0.0,0.0,1581.0,6,59.0,1.0,2.38,-1.0,0.0,0.0,0,,,100,100,0,1,0,0,0,0,0,,,,,0.0,0.0,0
41,51.519523,5.858086,5.9,7.5,0.1,0.23,5.9,5.9,4.1,0.36,4102,2020-09-29 13:18:19,2020-09-29 15:18:19.226,19,0,0,12.282,51.519521,5.858086,-0.1,0.0,0.0,-2.0,1.9,158.2,0,1,0,97,100,-7200,3665,12282,2971.5,7,GPS,1,0,0,0,0,0,0,1601385499226,4229,4225,4224,0,0,0,13,,,,,,,0,0,0,20.0,19.0,1582.0,0.0,0.0,1581.0,6,59.0,1.0,2.32,-1.0,0.0,0.0,0,,,100,100,0,1,0,0,0,0,0,,,,,0.0,0.0,0
42,51.519523,5.858086,5.9,7.5,0.0,0.23,5.9,5.9,4.1,0.36,4202,2020-09-29 13:18:19,2020-09-29 15:18:19.327,19,0,0,12.282,51.519521,5.858086,0.0,0.0,0.0,-2.1,2.0,158.1,0,1,0,97,100,-7200,3665,12282,2971.5,7,GPS,1,0,0,0,0,0,0,1601385499326,4229,4225,4224,0,0,0,13,,,,,,,0,0,0,21.0,20.0,1581.0,0.0,0.0,1581.0,6,59.0,0.0,2.29,0.0,0.0,0.0,0,,,100,100,0,1,0,0,0,0,0,,,,,0.0,0.0,0
43,51.519523,5.858086,5.9,7.5,0.0,0.22,5.9,5.9,4.1,0.36,4317,2020-09-29 13:18:19,2020-09-29 15:18:19.441,19,0,0,12.282,51.519521,5.858086,0.0,0.0,0.0,-2.2,2.0,158.1,0,1,0,97,100,-7200,3665,12282,2971.5,7,GPS,1,0,0,0,0,0,0,1601385499441,4229,4225,4224,0,0,0,13,,,,,,,0,0,0,22.0,20.0,1581.0,0.0,0.0,1581.0,6,59.0,0.0,2.25,0.0,0.0,0.0,0,,,100,100,0,1,0,0,0,0,0,,,,,0.0,0.0,0
44,51.519523,5.858086,5.9,7.5,0.0,0.22,5.9,5.9,4.1,0.36,4404,2020-09-29 13:18:19,2020-09-29 15:18:19.529,19,0,0,12.282,51.519521,5.858086,0.0,0.0,0.0,-2.4,1.9,158.1,0,1,0,97,100,-7200,3665,12282,2971.5,7,GPS,1,0,0,0,0,0,0,1601385499528,4229,4225,4224,0,0,0,13,,,,,,,0,0,0,24.0,19.0,1581.0,0.0,0.0,1581.0,6,59.0,0.0,2.22,0.0,0.0,0.0,0,,,100,100,0,1,0,0,0,0,0,,,,,0.0,0.0,0
45,51.519523,5.858086,5.9,7.5,0.0,0.22,5.9,5.9,4.1,0.36,4496,2020-09-29 13:18:19,2020-09-29 15:18:19.621,19,0,0,12.282,51.519521,5.858086,0.0,0.0,0.0,-2.4,2.1,158.1,0,1,0,97,100,-7200,3665,12282,2971.5,7,GPS,1,0,0,0,0,0,0,1601385499620,4229,4225,4224,0,0,0,13,,,,,,,0,0,0,24.0,21.0,1581.0,0.0,0.0,1581.0,6,59.0,0.0,2.23,0.0,0.0,0.0,0,,,100,100,0,1,0,0,0,0,0,,,,,0.0,0.0,0
46,51.519523,5.858086,5.9,7.5,0.0,0.23,5.9,5.9,4.1,0.36,4618,2020-09-29 13:18:19,2020-09-29 15:18:19.743,19,0,0,12.282,51.519521,5.858086,0.0,0.0,0.0,-2.5,2.3,158.2,0,1,0,97,100,-7200,3665,12282,2971.5,7,GPS,1,0,0,0,0,0,0,1601385499742,4229,4225,4224,0,0,0,13,,,,,,,0,0,0,25.0,23.0,1582.0,0.0,0.0,1581.0,6,59.0,0.0,2.26,0.0,0.0,0.0,0,,,100,100,0,1,0,0,0,0,0,,,,,0.0,0.0,0
47,51.519523,5.858086,5.9,7.5,0.0,0.23,5.9,5.9,4.1,0.36,4702,2020-09-29 13:18:19,2020-09-29 15:18:19.827,19,0,0,12.282,51.519521,5.858086,0.0,0.0,0.0,-2.5,2.2,158.1,0,1,0,97,100,-7200,3665,12282,2971.5,7,GPS,1,0,0,0,0,0,0,1601385499826,4229,4225,4224,0,0,0,13,,,,,,,0,0,0,25.0,22.0,1581.0,0.0,0.0,1581.0,6,59.0,0.0,2.26,0.0,0.0,0.0,0,,,100,100,0,1,0,0,0,0,0,,,,,0.0,0.0,0
48,51.519523,5.858085,5.9,7.4,0.0,0.23,5.9,5.9,4.1,0.36,4816,2020-09-29 13:18:19,2020-09-29 15:18:19.940,19,0,0,12.282,51.519521,5.858086,0.0,0.0,0.0,-2.7,2.0,158.1,0,1,0,97,100,-7200,3665,12282,2971.5,7,GPS,1,0,0,0,0,0,0,1601385499940,4229,4225,4224,0,0,0,13,,,,,,,0,0,0,27.0,20.0,1581.0,0.0,0.0,1581.0,6,59.0,0.0,2.27,0.0,0.0,0.0,0,,,100,100,0,1,0,0,0,0,0,,,,,0.0,0.0,0
49,51.519523,5.858085,5.9,7.4,0.0,0.23,5.9,5.9,4.1,0.36,4901,2020-09-29 13:18:20,2020-09-29 15:18:20.025,19,0,0,12.282,51.519521,5.858086,0.0,0.0,0.0,-2.8,2.0,158.0,0,1,0,97,100,-7200,3665,12282,2971.5,7,GPS,1,0,0,0,0,0,0,1601385500025,4229,4225,4224,0,0,0,13,,,,,,,0,0,0,28.0,20.0,1580.0,0.0,0.0,1581.0,6,59.0,0.0,2.27,0.0,0.0,0.0,0,,,100,100,0,1,0,0,0,0,0,,,,,0.0,0.0,0
50,51.519523,5.858085,5.9,7.4,0.0,0.23,5.9,5.9,4.1,0.36,5032,2020-09-29 13:18:20,2020-09-29 15:18:20.156,19,0,0,12.282,51.519521,5.858086,0.0,0.0,0.0,-3.0,1.9,158.0,0,1,0,97,100,-7200,3665,12282,2971.5,7,GPS,1,0,0,0,0,0,0,1601385500156,4229,4225,4224,0,0,0,13,,,,,,,0,0,0,30.0,19.0,1580.0,0.0,0.0,1581.0,6,59.0,0.0,2.29,0.0,0.0,0.0,0,,,100,100,0,1,0,0,0,0,0,,,,,0.0,0.0,0
51,51.519523,5.858085,5.9,7.4,0.0,0.23,5.9,5.9,4.1,0.36,5098,2020-09-29 13:18:20,2020-09-29 15:18:20.222,19,0,0,12.282,51.519521,5.858086,0.0,0.0,0.0,-3.0,1.9,158.0,0,1,0,97,100,-7200,3665,12282,2971.5,7,GPS,1,0,0,0,0,0,0,1601385500222,4229,4225,4224,0,0,0,13,,,,,,,0,0,0,30.0,19.0,1580.0,0.0,0.0,1581.0,6,59.0,0.0,2.25,0.0,0.0,0.0,0,,,100,100,0,1,0,0,0,0,0,,,,,0.0,0.0,0
52,51.519523,5.858085,5.8,7.4,0.0,0.22,5.9,5.9,4.1,0.36,5198,2020-09-29 13:18:20,2020-09-29 15:18:20.323,19,0,0,12.282,51.519521,5.858086,0.0,0.0,0.0,-3.0,1.8,158.0,0,1,0,97,100,-7200,3665,12282,2971.5,7,GPS,1,0,0,0,0,0,0,1601385500322,4229,4225,4224,0,0,0,13,,,,,,,0,0,0,30.0,18.0,1580.0,0.0,0.0,1581.0,6,58.0,0.0,2.23,0.0,0.0,0.0,0,,,100,100,0,1,0,0,0,0,0,,,,,0.0,0.0,0
53,51.519523,5.858085,5.8,7.4,0.0,0.22,5.9,5.9,4.1,0.36,5300,2020-09-29 13:18:20,2020-09-29 15:18:20.424,19,0,0,12.282,51.519521,5.858086,0.0,0.0,0.0,-3.0,1.9,158.0,0,1,0,97,100,-7200,3665,12282,2971.5,7,GPS,1,0,0,0,0,0,0,1601385500424,4229,4225,4224,0,0,0,13,,,,,,,0,0,0,30.0,19.0,1580.0,0.0,0.0,1581.0,6,58.0,0.0,2.2,0.0,0.0,0.0,0,,,100,100,0,1,0,0,0,0,0,,,,,0.0,0.0,0
54,51.519523,5.858085,5.8,7.4,0.0,0.22,5.9,5.9,4.1,0.36,5401,2020-09-29 13:18:20,2020-09-29 15:18:20.526,19,0,0,12.282,51.519521,5.858086,0.0,0.0,0.0,-2.9,1.8,158.0,0,1,0,97,100,-7200,3665,12282,2971.5,7,GPS,1,0,0,0,0,0,0,1601385500525,4229,4225,4224,0,0,0,13,,,,,,,0,0,0,29.0,18.0,1580.0,0.0,0.0,1581.0,6,58.0,0.0,2.18,0.0,0.0,0.0,0,,,100,100,0,1,0,0,0,0,0,,,,,0.0,0.0,0
55,51.519523,5.858085,5.8,7.4,0.0,0.22,5.9,5.9,4.1,0.36,5495,2020-09-29 13:18:20,2020-09-29 15:18:20.620,19,0,0,12.282,51.519521,5.858086,0.0,0.0,0.0,-3.1,2.1,158.0,0,1,0,97,100,-7200,3665,12282,2971.5,7,GPS,1,0,0,0,0,0,0,1601385500619,4229,4225,4224,0,0,0,13,,,,,,,0,0,0,31.0,21.0,1580.0,0.0,0.0,1581.0,6,58.0,0.0,2.16,0.0,0.0,0.0,0,,,100,100,0,1,0,0,0,0,0,,,,,0.0,0.0,0
56,51.519523,5.858085,5.8,7.4,0.0,0.22,5.9,5.9,4.1,0.36,5601,2020-09-29 13:18:20,2020-09-29 15:18:20.725,19,0,0,12.239,51.519521,5.858086,0.0,0.0,0.0,-2.9,2.3,158.1,0,1,0,97,100,-6902,3665,12239,2971.5,7,GPS,1,0,0,0,0,0,0,1601385500725,4229,4225,4224,0,0,0,13,,,,,,,0,0,0,29.0,23.0,1581.0,0.0,0.0,1581.0,6,58.0,0.0,2.15,0.0,0.0,0.0,0,,,100,100,0,1,0,0,0,0,0,,,,,0.0,0.0,0
57,51.519523,5.858085,5.8,7.4,0.0,0.21,5.9,5.9,4.1,0.36,5734,2020-09-29 13:18:20,2020-09-29 15:18:20.858,19,0,0,12.239,51.519521,5.858086,0.0,0.0,0.0,-2.9,2.5,158.1,0,1,0,97,100,-6902,3665,12239,2971.5,7,GPS,1,0,0,0,0,0,0,1601385500858,4229,4225,4224,0,0,0,13,,,,,,,0,0,0,29.0,25.0,1581.0,0.0,0.0,1581.0,6,58.0,0.0,2.11,0.0,0.0,0.0,0,,,100,100,0,1,0,0,0,0,0,,,,,0.0,0.0,0
58,51.519523,5.858085,5.8,7.4,0.0,0.21,5.9,5.9,4.1,0.36,5811,2020-09-29 13:18:20,2020-09-29 15:18:20.935,19,0,0,12.239,51.519521,5.858086,0.0,0.0,0.0,-3.0,2.4,158.0,0,1,0,97,100,-6902,3665,12239,2971.5,7,GPS,1,0,0,0,0,0,0,1601385500935,4229,4225,4224,0,0,0,13,,,,,,,0,0,0,30.0,24.0,1580.0,0.0,0.0,1581.0,6,58.0,0.0,2.09,0.0,0.0,0.0,0,,,100,100,0,1,0,0,0,0,0,,,,,0.0,0.0,0
59,51.519523,5.858085,5.8,7.4,0.0,0.2,5.9,5.9,4.1,0.36,5904,2020-09-29 13:18:21,2020-09-29 15:18:21.029,19,0,0,12.239,51.519521,5.858086,0.0,0.0,0.0,-3.2,2.4,158.0,0,1,0,97,100,-6902,3665,12239,2971.5,7,GPS,1,0,0,0,0,0,0,1601385501028,4229,4225,4224,0,0,0,13,,,,,,,0,0,0,32.0,24.0,1580.0,0.0,0.0,1581.0,6,58.0,0.0,2.03,0.0,0.0,0.0,0,,,100,100,0,1,0,0,0,0,0,,,,,0.0,0.0,0
60,51.519523,5.858085,5.8,7.4,0.0,0.2,5.9,5.9,4.1,0.36,5999,2020-09-29 13:18:21,2020-09-29 15:18:21.124,19,0,0,12.239,51.519521,5.858086,0.0,0.0,0.0,-3.1,2.3,158.0,0,1,0,97,100,-6902,3665,12239,2971.5,7,GPS,1,0,0,0,0,0,0,1601385501123,4229,4225,4224,0,0,0,13,,,,,,,0,0,0,31.0,23.0,1580.0,0.0,0.0,1581.0,6,58.0,0.0,1.99,0.0,0.0,0.0,0,,,100,100,0,1,0,0,0,0,0,,,,,0.0,0.0,0
61,51.519523,5.858085,5.8,7.4,0.0,0.19,5.9,5.9,4.1,0.36,6104,2020-09-29 13:18:21,2020-09-29 15:18:21.229,19,0,0,12.239,51.519521,5.858086,0.0,0.0,0.0,-3.1,2.4,157.9,0,1,0,97,100,-6902,3665,12239,2971.5,7,GPS,1,0,0,0,0,0,0,1601385501228,4229,4225,4224,0,0,0,13,,,,,,,0,0,0,31.0,24.0,1579.0,0.0,0.0,1581.0,6,58.0,0.0,1.95,0.0,0.0,0.0,0,,,100,100,0,1,0,0,0,0,0,,,,,0.0,0.0,0
62,51.519523,5.858085,5.8,7.4,0.0,0.19,5.9,5.9,4.1,0.36,6203,2020-09-29 13:18:21,2020-09-29 15:18:21.327,19,0,0,12.239,51.519521,5.858086,0.0,0.0,0.0,-3.0,2.9,157.9,0,1,0,97,100,-6902,3665,12239,2971.5,7,GPS,1,0,0,0,0,0,0,1601385501327,4229,4225,4224,0,0,0,13,,,,,,,0,0,0,30.0,29.0,1579.0,0.0,0.0,1581.0,6,58.0,0.0,1.92,0.0,0.0,0.0,0,,,100,100,0,1,0,0,0,0,0,,,,,0.0,0.0,0
63,51.519523,5.858085,5.8,7.3,0.0,0.19,5.9,5.9,4.1,0.36,6303,2020-09-29 13:18:21,2020-09-29 15:18:21.428,19,0,0,12.239,51.519521,5.858086,0.0,0.0,0.0,-3.0,3.0,157.9,0,1,0,97,100,-6902,3665,12239,2971.5,7,GPS,1,0,0,0,0,0,0,1601385501427,4229,4225,4224,0,0,0,13,,,,,,,0,0,0,30.0,30.0,1579.0,0.0,0.0,1581.0,6,58.0,0.0,1.87,0.0,0.0,0.0,0,,,100,100,0,1,0,0,0,0,0,,,,,0.0,0.0,0
64,51.519523,5.858085,5.8,7.3,0.0,0.18,5.9,5.9,4.1,0.36,6398,2020-09-29 13:18:21,2020-09-29 15:18:21.522,19,0,0,12.239,51.519521,5.858086,0.0,0.0,0.0,-3.1,3.1,157.9,0,1,0,97,100,-6902,3665,12239,2971.5,7,GPS,1,0,0,0,0,0,0,1601385501522,4229,4225,4224,0,0,0,13,,,,,,,0,0,0,31.0,31.0,1579.0,0.0,0.0,1581.0,6,58.0,0.0,1.84,0.0,0.0,0.0,0,,,100,100,0,1,0,0,0,0,0,,,,,0.0,0.0,0
65,51.519522,5.858085,5.8,7.3,0.0,0.18,5.9,5.9,4.1,0.36,6497,2020-09-29 13:18:21,2020-09-29 15:18:21.622,19,0,0,12.239,51.519521,5.858086,0.0,0.0,0.0,-3.2,3.2,157.9,0,1,0,97,100,-6902,3665,12239,2971.5,7,GPS,1,0,0,0,0,0,0,1601385501621,4229,4225,4224,0,0,0,13,,,,,,,0,0,0,32.0,32.0,1579.0,0.0,0.0,1581.0,6,58.0,0.0,1.78,0.0,0.0,0.0,0,,,100,100,0,1,0,0,0,0,0,,,,,0.0,0.0,0
66,51.519522,5.858085,5.8,7.3,0.0,0.17,5.9,5.9,4.1,0.36,6604,2020-09-29 13:18:21,2020-09-29 15:18:21.728,19,0,0,12.239,51.519521,5.858086,0.0,0.0,0.0,-3.2,3.3,157.9,0,1,0,97,100,-6902,3665,12239,2971.5,7,GPS,1,0,0,0,0,0,0,1601385501728,4229,4225,4224,0,0,0,13,,,,,,,0,0,0,32.0,33.0,1579.0,0.0,0.0,1581.0,6,58.0,0.0,1.74,0.0,0.0,0.0,0,,,100,100,0,1,0,0,0,0,0,,,,,0.0,0.0,0
67,51.519522,5.858085,5.8,7.3,0.0,0.17,5.9,5.9,4.1,0.36,6704,2020-09-29 13:18:21,2020-09-29 15:18:21.828,19,0,0,12.239,51.519521,5.858086,0.0,0.0,0.0,-3.2,3.4,157.9,0,1,0,97,100,-6902,3665,12239,2971.5,7,GPS,1,0,0,0,0,0,0,1601385501828,4229,4225,4224,0,0,0,13,,,,,,,0,0,0,32.0,34.0,1579.0,0.0,0.0,1581.0,6,58.0,0.0,1.7,0.0,0.0,0.0,0,,,100,100,0,1,0,0,0,0,0,,,,,0.0,0.0,0
68,51.519522,5.858085,5.8,7.3,0.0,0.17,5.9,5.9,4.1,0.36,6837,2020-09-29 13:18:21,2020-09-29 15:18:21.961,19,0,0,12.239,51.519521,5.858086,0.0,0.0,0.0,-3.3,3.3,157.9,0,1,0,97,100,-6902,3665,12239,2971.5,7,GPS,1,0,0,0,0,0,0,1601385501961,4229,4225,4224,0,0,0,13,,,,,,,0,0,0,33.0,33.0,1579.0,0.0,0.0,1581.0,6,58.0,0.0,1.68,0.0,0.0,0.0,0,,,100,100,0,1,0,0,0,0,0,,,,,0.0,0.0,0
69,51.519522,5.858085,5.8,7.3,0.0,0.17,5.9,5.9,4.1,0.36,6894,2020-09-29 13:18:22,2020-09-29 15:18:22.019,19,0,0,12.239,51.519521,5.858086,0.0,0.0,0.0,-3.5,3.1,157.9,0,1,0,97,100,-6902,3665,12239,2971.5,7,GPS,1,0,0,0,0,0,0,1601385502018,4229,4225,4224,0,0,0,13,,,,,,,0,0,0,35.0,31.0,1579.0,0.0,0.0,1581.0,6,58.0,0.0,1.67,0.0,0.0,0.0,0,,,100,100,0,1,0,0,0,0,0,,,,,0.0,0.0,0
70,51.519522,5.858085,5.8,7.3,0.0,0.17,5.9,5.9,4.1,0.36,7010,2020-09-29 13:18:22,2020-09-29 15:18:22.134,19,0,0,12.239,51.519521,5.858086,0.0,0.0,0.0,-3.6,3.1,157.9,0,1,0,97,100,-6902,3665,12239,2971.5,7,GPS,1,0,0,0,0,0,0,1601385502134,4229,4225,4224,0,0,0,13,,,,,,,0,0,0,36.0,31.0,1579.0,0.0,0.0,1581.0,6,58.0,0.0,1.66,0.0,0.0,0.0,0,,,100,100,0,1,0,0,0,0,0,,,,,0.0,0.0,0
71,51.519522,5.858085,5.8,7.3,0.0,0.16,5.9,5.9,4.1,0.36,7097,2020-09-29 13:18:22,2020-09-29 15:18:22.221,19,0,0,12.239,51.519521,5.858086,0.0,0.0,0.0,-3.4,3.1,157.9,0,1,0,97,100,-6902,3665,12239,2971.5,7,GPS,1,0,0,0,0,0,0,1601385502221,4229,4225,4224,0,0,0,13,,,,,,,0,0,0,34.0,31.0,1579.0,0.0,0.0,1581.0,6,58.0,0.0,1.62,0.0,0.0,0.0,0,,,100,100,0,1,0,0,0,0,0,,,,,0.0,0.0,0
72,51.519522,5.858085,5.8,7.3,0.0,0.16,5.9,5.9,4.1,0.36,7196,2020-09-29 13:18:22,2020-09-29 15:18:22.321,19,0,0,12.239,51.519521,5.858086,0.0,0.0,0.0,-3.3,3.2,157.9,0,1,0,97,100,-6902,3665,12239,2971.5,7,GPS,1,0,0,0,0,0,0,1601385502320,4229,4225,4224,0,0,0,13,,,,,,,0,0,0,33.0,32.0,1579.0,0.0,0.0,1581.0,6,58.0,0.0,1.59,0.0,0.0,0.0,0,,,100,100,0,1,0,0,0,0,0,,,,,0.0,0.0,0
73,51.519522,5.858085,5.8,7.3,0.0,0.16,5.9,5.9,4.1,0.36,7295,2020-09-29 13:18:22,2020-09-29 15:18:22.420,19,0,0,12.239,51.519521,5.858086,0.0,0.0,0.0,-3.4,3.3,157.9,0,1,0,97,100,-6902,3665,12239,2971.5,7,GPS,1,0,0,0,0,0,0,1601385502419,4229,4225,4224,0,0,0,13,,,,,,,0,0,0,34.0,33.0,1579.0,0.0,0.0,1581.0,6,58.0,0.0,1.56,0.0,0.0,0.0,0,,,100,100,0,1,0,0,0,0,0,,,,,0.0,0.0,0
74,51.519522,5.858085,5.9,7.3,0.0,0.15,5.9,5.9,4.1,0.36,7400,2020-09-29 13:18:22,2020-09-29 15:18:22.524,19,0,0,12.239,51.519521,5.858086,0.0,0.0,0.0,-3.5,3.1,157.8,0,1,0,97,100,-6902,3665,12239,2971.5,7,GPS,1,0,0,0,0,0,0,1601385502524,4229,4225,4224,0,0,0,13,,,,,,,0,0,0,35.0,31.0,1578.0,0.0,0.0,1581.0,6,59.0,0.0,1.55,0.0,0.0,0.0,0,,,100,100,0,1,0,0,0,0,0,,,,,0.0,0.0,0
75,51.519522,5.858085,5.9,7.3,0.0,0.15,5.9,5.9,4.1,0.36,7499,2020-09-29 13:18:22,2020-09-29 15:18:22.624,19,0,0,12.239,51.519521,5.858086,0.0,0.0,0.0,-3.8,3.2,157.8,0,1,0,97,100,-6902,3665,12239,2971.5,7,GPS,1,0,0,0,0,0,0,1601385502623,4096,4081,4079,0,0,0,13,,,,,,,0,0,0,38.0,32.0,1578.0,0.0,0.0,1581.0,6,59.0,0.0,1.54,0.0,0.0,0.0,0,,,100,100,0,1,0,0,0,0,0,,,,,0.0,0.0,0
76,51.519522,5.858085,5.9,7.3,0.0,0.15,5.9,5.9,4.1,0.36,7597,2020-09-29 13:18:22,2020-09-29 15:18:22.722,19,0,0,12.196,51.519521,5.858086,0.0,0.0,0.0,-3.7,3.4,157.8,0,1,0,97,100,-7024,3663,12196,2971.5,7,GPS,1,0,0,0,0,0,0,1601385502721,4096,4081,4079,0,0,0,13,,,,,,,0,0,0,37.0,34.0,1578.0,0.0,0.0,1581.0,6,59.0,0.0,1.53,0.0,0.0,0.0,0,,,100,100,0,1,0,0,0,0,0,,,,,0.0,0.0,0
77,51.519522,5.858085,5.9,7.3,0.0,0.15,5.9,5.9,4.1,0.36,7693,2020-09-29 13:18:22,2020-09-29 15:18:22.818,19,0,0,12.196,51.519521,5.858086,0.0,0.0,0.0,-3.4,3.6,157.8,0,1,0,97,100,-7024,3663,12196,2971.5,7,GPS,1,0,0,0,0,0,0,1601385502817,4096,4081,4079,0,0,0,13,,,,,,,0,0,0,34.0,36.0,1578.0,0.0,0.0,1581.0,6,59.0,0.0,1.52,0.0,0.0,0.0,0,,,100,100,0,1,0,0,0,0,0,,,,,0.0,0.0,0
78,51.519522,5.858085,5.9,7.2,0.0,0.15,5.9,5.9,4.1,0.36,7789,2020-09-29 13:18:22,2020-09-29 15:18:22.913,19,0,0,12.196,51.519521,5.858086,0.0,0.0,0.0,-3.1,3.6,157.8,0,1,0,97,100,-7024,3663,12196,2971.5,7,GPS,1,0,0,0,0,0,0,1601385502913,4096,4081,4079,0,0,0,13,,,,,,,0,0,0,31.0,36.0,1578.0,0.0,0.0,1581.0,6,59.0,0.0,1.5,0.0,0.0,0.0,0,,,100,100,0,1,0,0,0,0,0,,,,,0.0,0.0,0
79,51.519522,5.858085,5.9,7.2,0.0,0.15,5.9,5.9,4.1,0.36,7895,2020-09-29 13:18:23,2020-09-29 15:18:23.020,19,0,0,12.196,51.519521,5.858086,0.0,0.0,0.0,-3.1,3.5,157.8,0,1,0,97,100,-7024,3663,12196,2971.5,7,GPS,1,0,0,0,0,0,0,1601385503019,4096,4081,4079,0,0,0,13,,,,,,,0,0,0,31.0,35.0,1578.0,0.0,0.0,1581.0,6,59.0,0.0,1.49,0.0,0.0,0.0,0,,,100,100,0,1,0,0,0,0,0,,,,,0.0,0.0,0
80,51.519522,5.858085,5.9,7.2,0.0,0.15,5.9,5.9,4.1,0.36,8001,2020-09-29 13:18:23,2020-09-29 15:18:23.125,19,0,0,12.196,51.519521,5.858086,0.0,0.0,0.0,-3.3,3.4,157.8,0,1,0,97,100,-7024,3663,12196,2971.5,7,GPS,1,0,0,0,0,0,0,1601385503125,4096,4081,4079,0,0,0,13,,,,,,,0,0,0,33.0,34.0,1578.0,0.0,0.0,1581.0,6,59.0,0.0,1.48,0.0,0.0,0.0,0,,,100,100,0,1,0,0,0,0,0,,,,,0.0,0.0,0
81,51.519522,5.858085,5.9,7.2,0.0,0.14,5.9,5.9,4.1,0.36,8093,2020-09-29 13:18:23,2020-09-29 15:18:23.218,19,0,0,12.196,51.519521,5.858086,0.0,0.0,0.0,-3.4,3.4,157.8,0,1,0,97,100,-7024,3663,12196,2971.5,7,GPS,1,0,0,0,0,0,0,1601385503217,4096,4081,4079,0,0,0,13,,,,,,,0,0,0,34.0,34.0,1578.0,0.0,0.0,1581.0,6,59.0,0.0,1.45,0.0,0.0,0.0,0,,,100,100,0,1,0,0,0,0,0,,,,,0.0,0.0,0
82,51.519522,5.858085,5.9,7.2,0.0,0.14,5.9,5.9,4.1,0.36,8194,2020-09-29 13:18:23,2020-09-29 15:18:23.319,19,0,0,12.196,51.519521,5.858086,0.0,0.0,0.0,-3.2,3.5,157.8,0,1,0,97,100,-7024,3663,12196,2971.5,7,GPS,1,0,0,0,0,0,0,1601385503318,4096,4081,4079,0,0,0,13,,,,,,,0,0,0,32.0,35.0,1578.0,0.0,0.0,1581.0,6,59.0,0.0,1.42,0.0,0.0,0.0,0,,,100,100,0,1,0,0,0,0,0,,,,,0.0,0.0,0
83,51.519522,5.858085,5.9,7.2,0.0,0.14,5.9,5.9,4.1,0.36,8302,2020-09-29 13:18:23,2020-09-29 15:18:23.427,19,0,0,12.196,51.519521,5.858086,0.0,0.0,0.0,-3.0,3.5,157.9,0,1,0,97,100,-7024,3663,12196,2971.5,7,GPS,1,0,0,0,0,0,0,1601385503426,4096,4081,4079,0,0,0,13,,,,,,,0,0,0,30.0,35.0,1579.0,0.0,0.0,1581.0,6,59.0,0.0,1.39,0.0,0.0,0.0,0,,,100,100,0,1,0,0,0,0,0,,,,,0.0,0.0,0
84,51.519522,5.858085,5.9,7.2,0.0,0.14,5.9,5.9,4.1,0.36,8390,2020-09-29 13:18:23,2020-09-29 15:18:23.515,19,0,0,12.196,51.519521,5.858086,0.0,0.0,0.0,-2.8,3.5,157.9,0,1,0,97,100,-7024,3663,12196,2971.5,7,GPS,1,0,0,0,0,0,0,1601385503514,4096,4081,4079,0,0,0,13,,,,,,,0,0,0,28.0,35.0,1579.0,0.0,0.0,1581.0,6,59.0,0.0,1.36,0.0,0.0,0.0,0,,,100,100,0,1,0,0,0,0,0,,,,,0.0,0.0,0
85,51.519522,5.858085,5.9,7.2,0.0,0.13,5.9,5.9,4.1,0.36,8491,2020-09-29 13:18:23,2020-09-29 15:18:23.616,19,0,0,12.196,51.519521,5.858086,0.0,0.0,0.0,-2.7,3.5,157.9,0,1,0,97,100,-7024,3663,12196,2971.5,7,GPS,1,0,0,0,0,0,0,1601385503615,4096,4081,4079,0,0,0,13,,,,,,,0,0,0,27.0,35.0,1579.0,0.0,0.0,1581.0,6,59.0,0.0,1.32,0.0,0.0,0.0,0,,,100,100,0,1,0,0,0,0,0,,,,,0.0,0.0,0
86,51.519522,5.858085,5.9,7.2,0.0,0.13,5.9,5.9,4.1,0.36,8595,2020-09-29 13:18:23,2020-09-29 15:18:23.719,19,0,0,12.196,51.519521,5.858086,0.0,0.0,0.0,-2.6,3.5,157.9,0,1,0,97,100,-7024,3663,12196,2971.5,7,GPS,1,0,0,0,0,0,0,1601385503719,4096,4081,4079,0,0,0,13,,,,,,,0,0,0,26.0,35.0,1579.0,0.0,0.0,1581.0,6,59.0,0.0,1.29,0.0,0.0,0.0,0,,,100,100,0,1,0,0,0,0,0,,,,,0.0,0.0,0
87,51.519522,5.858085,5.9,7.2,0.0,0.12,5.9,5.9,4.1,0.36,8697,2020-09-29 13:18:23,2020-09-29 15:18:23.821,19,0,0,12.196,51.519521,5.858086,0.0,0.0,0.0,-2.7,3.4,157.9,0,1,0,97,100,-7024,3663,12196,2971.5,7,GPS,1,0,0,0,0,0,0,1601385503821,4096,4081,4079,0,0,0,13,,,,,,,0,0,0,27.0,34.0,1579.0,0.0,0.0,1581.0,6,59.0,0.0,1.25,0.0,0.0,0.0,0,,,100,100,0,1,0,0,0,0,0,,,,,0.0,0.0,0
88,51.519522,5.858085,5.9,7.2,0.0,0.12,5.9,5.9,4.1,0.36,8803,2020-09-29 13:18:23,2020-09-29 15:18:23.928,19,0,0,12.196,51.519521,5.858086,0.0,0.0,0.0,-2.8,3.2,158.0,0,1,0,97,100,-7024,3663,12196,2971.5,7,GPS,1,0,0,0,0,0,0,1601385503927,4096,4081,4079,0,0,0,13,,,,,,,0,0,0,28.0,32.0,1580.0,0.0,0.0,1581.0,6,59.0,0.0,1.22,0.0,0.0,0.0,0,,,100,100,0,1,0,0,0,0,0,,,,,0.0,0.0,0
89,51.519522,5.858085,5.9,7.2,0.0,0.12,5.9,5.9,4.1,0.36,8900,2020-09-29 13:18:24,2020-09-29 15:18:24.024,19,0,0,12.196,51.519521,5.858086,0.0,0.0,0.0,-2.9,3.2,158.0,0,1,0,97,100,-7024,3663,12196,2971.5,7,GPS,1,0,0,0,0,0,0,1601385504024,4096,4081,4079,0,0,0,13,,,,,,,0,0,0,29.0,32.0,1580.0,0.0,0.0,1581.0,6,59.0,0.0,1.22,0.0,0.0,0.0,0,,,100,100,0,1,0,0,0,0,0,,,,,0.0,0.0,0
90,51.519522,5.858085,5.9,7.2,0.0,0.12,5.9,5.9,4.1,0.36,8992,2020-09-29 13:18:24,2020-09-29 15:18:24.117,19,0,0,12.196,51.519521,5.858086,0.0,0.0,0.0,-2.9,3.4,158.0,0,1,0,97,100,-7024,3663,12196,2971.5,7,GPS,1,0,0,0,0,0,0,1601385504116,4096,4081,4079,0,0,0,13,,,,,,,0,0,0,29.0,34.0,1580.0,0.0,0.0,1581.0,6,59.0,0.0,1.22,0.0,0.0,0.0,0,,,100,100,0,1,0,0,0,0,0,,,,,0.0,0.0,0
91,51.519522,5.858085,5.9,7.2,0.0,0.12,5.9,5.9,4.1,0.36,9095,2020-09-29 13:18:24,2020-09-29 15:18:24.220,19,0,0,12.196,51.519521,5.858086,0.0,0.0,0.0,-2.8,3.5,158.0,0,1,0,97,100,-7024,3663,12196,2971.5,7,GPS,1,0,0,0,0,0,0,1601385504219,4096,4081,4079,0,0,0,13,,,,,,,0,0,0,28.0,35.0,1580.0,0.0,0.0,1581.0,6,59.0,0.0,1.19,0.0,0.0,0.0,0,,,100,100,0,1,0,0,0,0,0,,,,,0.0,0.0,0
92,51.519522,5.858085,5.9,7.1,0.0,0.12,5.9,5.9,4.1,0.36,9193,2020-09-29 13:18:24,2020-09-29 15:18:24.318,19,0,0,12.196,51.519521,5.858086,0.0,0.0,0.0,-2.8,3.5,158.0,0,1,0,97,100,-7024,3663,12196,2971.5,7,GPS,1,0,0,0,0,0,0,1601385504317,4096,4081,4079,0,0,0,13,,,,,,,0,0,0,28.0,35.0,1580.0,0.0,0.0,1581.0,6,59.0,0.0,1.17,0.0,0.0,0.0,0,,,100,100,0,1,0,0,0,0,0,,,,,0.0,0.0,0
93,51.519522,5.858085,5.9,7.1,0.0,0.12,5.9,5.9,4.1,0.36,9291,2020-09-29 13:18:24,2020-09-29 15:18:24.415,19,0,0,12.196,51.519521,5.858086,0.0,0.0,0.0,-2.6,3.3,158.0,0,1,0,97,100,-7024,3663,12196,2971.5,7,GPS,1,0,0,0,0,0,0,1601385504415,4096,4081,4079,0,0,0,13,,,,,,,0,0,0,26.0,33.0,1580.0,0.0,0.0,1581.0,6,59.0,0.0,1.17,0.0,0.0,0.0,0,,,100,100,0,1,0,0,0,0,0,,,,,0.0,0.0,0
94,51.519522,5.858085,5.9,7.1,0.0,0.12,5.9,5.9,4.1,0.36,9392,2020-09-29 13:18:24,2020-09-29 15:18:24.517,19,0,0,12.196,51.519521,5.858086,0.0,0.0,0.0,-2.7,3.4,157.9,0,1,0,97,100,-7024,3663,12196,2971.5,7,GPS,1,0,0,0,0,0,0,1601385504516,4096,4081,4079,0,0,0,13,,,,,,,0,0,0,27.0,34.0,1579.0,0.0,0.0,1581.0,6,59.0,0.0,1.17,0.0,0.0,0.0,0,,,100,100,0,1,0,0,0,0,0,,,,,0.0,0.0,0
95,51.519522,5.858085,5.9,7.1,0.0,0.12,5.9,5.9,4.1,0.36,9492,2020-09-29 13:18:24,2020-09-29 15:18:24.616,19,0,0,12.196,51.519521,5.858086,0.0,0.0,0.0,-2.7,3.5,157.9,0,1,0,97,100,-7024,3663,12196,2971.5,7,GPS,1,0,0,0,0,0,0,1601385504616,4096,4081,4079,0,0,0,13,,,,,,,0,0,0,27.0,35.0,1579.0,0.0,0.0,1581.0,6,59.0,0.0,1.18,0.0,0.0,0.0,0,,,100,100,0,1,0,0,0,0,0,,,,,0.0,0.0,0
96,51.519522,5.858085,5.9,7.1,0.0,0.12,5.9,5.9,4.1,0.36,9605,2020-09-29 13:18:24,2020-09-29 15:18:24.730,19,0,0,12.218,51.519521,5.858086,0.0,0.0,0.0,-2.7,3.6,157.9,0,1,0,97,100,-7224,3657,12218,2971.5,7,GPS,1,0,0,0,0,0,0,1601385504729,4096,4081,4079,0,0,0,13,,,,,,,0,0,0,27.0,36.0,1579.0,0.0,0.0,1581.0,6,59.0,0.0,1.2,0.0,0.0,0.0,0,,,100,100,0,1,0,0,0,0,0,,,,,0.0,0.0,0
97,51.519522,5.858085,5.9,7.1,0.0,0.12,5.9,5.9,4.1,0.36,9745,2020-09-29 13:18:24,2020-09-29 15:18:24.870,19,0,0,12.218,51.519521,5.858086,0.0,0.0,0.0,-2.7,3.6,157.9,0,1,0,97,100,-7224,3657,12218,2971.5,7,GPS,1,0,0,0,0,0,0,1601385504869,4096,4081,4079,0,0,0,13,,,,,,,0,0,0,27.0,36.0,1579.0,0.0,0.0,1581.0,6,59.0,0.0,1.19,0.0,0.0,0.0,0,,,100,100,0,1,0,0,0,0,0,,,,,0.0,0.0,0
98,51.519522,5.858085,5.9,7.1,0.0,0.12,5.9,5.9,4.1,0.36,9801,2020-09-29 13:18:24,2020-09-29 15:18:24.925,19,0,0,12.218,51.519521,5.858086,0.0,0.0,0.0,-2.7,3.6,158.0,0,1,0,97,100,-7224,3657,12218,2971.5,7,GPS,1,0,0,0,0,0,0,1601385504925,4096,4081,4079,0,0,0,13,,,,,,,0,0,0,27.0,36.0,1580.0,0.0,0.0,1581.0,6,59.0,0.0,1.2,0.0,0.0,0.0,0,,,100,100,0,1,0,0,0,0,0,,,,,0.0,0.0,0
99,51.519522,5.858085,5.9,7.1,0.0,0.12,5.9,5.9,4.1,0.36,9888,2020-09-29 13:18:25,2020-09-29 15:18:25.013,19,0,0,12.218,51.519521,5.858086,0.0,0.0,0.0,-2.6,3.7,157.9,0,1,0,97,100,-7224,3657,12218,2971.5,7,GPS,1,0,0,0,0,0,0,1601385505012,4096,4081,4079,0,0,0,13,,,,,,,0,0,0,26.0,37.0,1579.0,0.0,0.0,1581.0,6,59.0,0.0,1.2,0.0,0.0,0.0,0,,,100,100,0,1,0,0,0,0,0,,,,,0.0,0.0,0
100,51.519522,5.858085,5.9,7.1,0.0,0.12,5.9,5.9,4.1,0.36,10008,2020-09-29 13:18:25,2020-09-29 15:18:25.132,19,0,0,12.218,51.519521,5.858086,0.0,0.0,0.0,-2.7,3.6,158.0,0,1,0,97,100,-7224,3657,12218,2971.5,7,GPS,1,0,0,0,0,0,0,1601385505132,4096,4081,4079,0,0,0,13,,,,,,,0,0,0,27.0,36.0,1580.0,0.0,0.0,1581.0,6,59.0,0.0,1.22,0.0,0.0,0.0,0,,,100,100,0,1,0,0,0,0,0,,,,,0.0,0.0,0
101,51.519522,5.858085,5.9,7.1,0.0,0.12,5.9,5.9,4.1,0.36,10093,2020-09-29 13:18:25,2020-09-29 15:18:25.218,19,0,0,12.218,51.519521,5.858086,0.0,0.0,0.0,-2.9,3.5,157.9,0,1,0,97,100,-7224,3657,12218,2971.5,7,GPS,1,0,0,0,0,0,0,1601385505217,4096,4081,4079,0,0,0,13,,,,,,,0,0,0,29.0,35.0,1579.0,0.0,0.0,1581.0,6,59.0,0.0,1.21,0.0,0.0,0.0,0,,,100,100,0,1,0,0,0,0,0,,,,,0.0,0.0,0
102,51.519522,5.858085,5.9,7.1,0.0,0.12,5.9,5.9,4.1,0.36,10208,2020-09-29 13:18:25,2020-09-29 15:18:25.332,19,0,0,12.218,51.519521,5.858086,0.0,0.0,0.0,-3.0,3.4,157.9,0,1,0,97,100,-7224,3657,12218,2971.5,7,GPS,1,0,0,0,0,0,0,1601385505332,4096,4081,4079,0,0,0,13,,,,,,,0,0,0,30.0,34.0,1579.0,0.0,0.0,1581.0,6,59.0,0.0,1.2,0.0,0.0,0.0,0,,,100,100,0,1,0,0,0,0,0,,,,,0.0,0.0,0
103,51.519522,5.858085,5.9,7.1,0.0,0.12,5.9,5.9,4.1,0.36,10306,2020-09-29 13:18:25,2020-09-29 15:18:25.431,19,0,0,12.218,51.519521,5.858086,0.0,0.0,0.0,-2.9,3.3,157.9,0,1,0,97,100,-7224,3657,12218,2971.5,7,GPS,1,0,0,0,0,0,0,1601385505430,4096,4081,4079,0,0,0,13,,,,,,,0,0,0,29.0,33.0,1579.0,0.0,0.0,1581.0,6,59.0,0.0,1.21,0.0,0.0,0.0,0,,,100,100,0,1,0,0,0,0,0,,,,,0.0,0.0,0
104,51.519522,5.858085,5.9,7.1,0.0,0.12,5.9,5.9,4.1,0.36,10390,2020-09-29 13:18:25,2020-09-29 15:18:25.515,19,0,0,12.218,51.519521,5.858086,0.0,0.0,0.0,-2.8,3.2,157.9,0,1,0,97,100,-7224,3657,12218,2971.5,7,GPS,1,0,0,0,0,0,0,1601385505514,4096,4081,4079,0,0,0,13,,,,,,,0,0,0,28.0,32.0,1579.0,0.0,0.0,1581.0,6,59.0,0.0,1.22,0.0,0.0,0.0,0,,,100,100,0,1,0,0,0,0,0,,,,,0.0,0.0,0
105,51.519522,5.858085,5.9,7.1,0.0,0.12,5.9,5.9,4.1,0.36,10495,2020-09-29 13:18:25,2020-09-29 15:18:25.620,19,0,0,12.218,51.519521,5.858086,0.0,0.0,0.0,-2.7,3.2,158.0,0,1,0,97,100,-7224,3657,12218,2971.5,7,GPS,1,0,0,0,0,0,0,1601385505619,4096,4081,4079,0,0,0,13,,,,,,,0,0,0,27.0,32.0,1580.0,0.0,0.0,1581.0,6,59.0,0.0,1.24,0.0,0.0,0.0,0,,,100,100,0,1,0,0,0,0,0,,,,,0.0,0.0,0
106,51.519522,5.858084,5.9,7.1,0.0,0.13,5.9,5.9,4.1,0.36,10599,2020-09-29 13:18:25,2020-09-29 15:18:25.723,19,0,0,12.218,51.519521,5.858086,0.0,0.0,0.0,-2.9,3.2,157.9,0,1,0,97,100,-7224,3657,12218,2971.5,7,GPS,1,0,0,0,0,0,0,1601385505723,4096,4081,4079,0,0,0,13,,,,,,,0,0,0,29.0,32.0,1579.0,0.0,0.0,1581.0,6,59.0,0.0,1.26,0.0,0.0,0.0,0,,,100,100,0,1,0,0,0,0,0,,,,,0.0,0.0,0
107,51.519522,5.858084,5.9,7.1,0.0,0.13,5.9,5.9,4.1,0.36,10696,2020-09-29 13:18:25,2020-09-29 15:18:25.821,19,0,0,12.218,51.519521,5.858086,0.0,0.0,0.0,-2.9,3.3,157.9,0,1,0,97,100,-7224,3657,12218,2971.5,7,GPS,1,0,0,0,0,0,0,1601385505820,4096,4081,4079,0,0,0,13,,,,,,,0,0,0,29.0,33.0,1579.0,0.0,0.0,1581.0,6,59.0,0.0,1.25,0.0,0.0,0.0,0,,,100,100,0,1,0,0,0,0,0,,,,,0.0,0.0,0
108,51.519522,5.858084,5.9,7.1,0.0,0.13,5.9,5.9,4.1,0.36,10792,2020-09-29 13:18:25,2020-09-29 15:18:25.916,19,0,0,12.218,51.519521,5.858086,0.0,0.0,0.0,-2.9,3.4,157.9,0,1,0,97,100,-7224,3657,12218,2971.5,7,GPS,1,0,0,0,0,0,0,1601385505916,4096,4081,4079,0,0,0,13,,,,,,,0,0,0,29.0,34.0,1579.0,0.0,0.0,1581.0,6,59.0,0.0,1.26,0.0,0.0,0.0,0,,,100,100,0,1,0,0,0,0,0,,,,,0.0,0.0,0
109,51.519522,5.858084,5.9,7.0,0.0,0.13,5.9,5.9,4.1,0.36,10904,2020-09-29 13:18:26,2020-09-29 15:18:26.029,19,0,0,12.218,51.519521,5.858086,0.0,0.0,0.0,-2.7,3.3,157.9,0,1,0,97,100,-7224,3657,12218,2971.5,7,GPS,1,0,0,0,0,0,0,1601385506028,4096,4081,4079,0,0,0,13,,,,,,,0,0,0,27.0,33.0,1579.0,0.0,0.0,1581.0,6,59.0,0.0,1.26,0.0,0.0,0.0,0,,,100,100,0,1,0,0,0,0,0,,,,,0.0,0.0,0
110,51.519521,5.858084,5.9,7.0,0.0,0.13,5.9,5.9,4.1,0.36,10992,2020-09-29 13:18:26,2020-09-29 15:18:26.117,19,0,0,12.218,51.519521,5.858086,0.0,0.0,0.0,-2.7,3.1,158.0,0,1,0,97,100,-7224,3657,12218,2971.5,7,GPS,1,0,0,0,0,0,0,1601385506116,4096,4081,4079,0,0,0,13,,,,,,,0,0,0,27.0,31.0,1580.0,0.0,0.0,1581.0,6,59.0,0.0,1.28,0.0,0.0,0.0,0,,,100,100,0,1,0,0,0,0,0,,,,,0.0,0.0,0
111,51.519521,5.858084,5.9,7.0,0.0,0.13,5.9,5.9,4.1,0.36,11091,2020-09-29 13:18:26,2020-09-29 15:18:26.216,19,0,0,12.218,51.519521,5.858086,0.0,0.0,0.0,-2.8,3.0,158.0,0,1,0,97,100,-7224,3657,12218,2971.5,7,GPS,1,0,0,0,0,0,0,1601385506215,4096,4081,4079,0,0,0,13,,,,,,,0,0,0,28.0,30.0,1580.0,0.0,0.0,1581.0,6,59.0,0.0,1.31,0.0,0.0,0.0,0,,,100,100,0,1,0,0,0,1,0,,,,,0.0,0.0,0
112,51.519521,5.858084,5.9,7.0,0.0,0.14,5.9,5.9,4.1,0.36,11210,2020-09-29 13:18:26,2020-09-29 15:18:26.335,19,0,0,12.218,51.519521,5.858086,0.0,0.0,0.0,-2.9,2.8,157.9,0,1,0,97,100,-7224,3657,12218,2971.5,7,WP,1,0,0,0,0,0,0,1601385506334,4096,4081,4079,0,0,0,13,,,,,,,0,0,0,29.0,28.0,1579.0,0.0,0.0,1581.0,14,59.0,0.0,1.36,0.0,0.0,0.0,0,,,100,100,0,1,0,0,0,1,0,,,,,0.0,0.0,0
113,51.519521,5.858084,5.9,7.0,0.0,0.14,5.9,5.9,4.1,0.36,11296,2020-09-29 13:18:26,2020-09-29 15:18:26.421,19,0,0,12.218,51.519521,5.858086,0.0,0.0,0.0,-2.5,2.3,158.0,0,1,0,97,100,-7224,3657,12218,2971.5,7,WP,1,0,0,0,0,0,0,1601385506420,4096,4081,4079,0,0,0,13,,,,,,,0,0,0,25.0,23.0,1580.0,0.0,0.0,1581.0,14,59.0,0.0,1.38,0.0,0.0,0.0,0,,,100,100,0,1,0,0,0,1,0,,,,,0.0,0.0,0
114,51.519521,5.858084,5.9,7.0,0.0,0.14,5.9,5.9,4.1,0.36,11391,2020-09-29 13:18:26,2020-09-29 15:18:26.516,19,0,0,12.218,51.519521,5.858086,0.0,0.0,0.0,-2.5,2.4,157.8,0,1,0,97,100,-7224,3657,12218,2971.5,7,WP,1,0,0,0,0,0,0,1601385506515,4096,4081,4079,0,0,0,13,,,,,,,0,0,0,25.0,24.0,1578.0,0.0,0.0,1581.0,14,59.0,0.0,1.41,0.0,0.0,0.0,0,,,100,100,0,1,0,0,0,1,0,,,,,0.0,0.0,0
115,51.519521,5.858084,5.9,7.0,0.1,0.14,5.9,5.9,4.1,0.36,11491,2020-09-29 13:18:26,2020-09-29 15:18:26.615,19,0,0,12.218,51.519521,5.858086,0.0,0.0,-0.1,-2.9,2.3,157.8,0,1,0,97,100,-7224,3657,12218,2971.5,7,WP,1,0,0,0,0,0,0,1601385506615,4096,4081,4079,0,0,0,13,,,,,,,0,0,0,29.0,23.0,1578.0,0.0,0.0,1581.0,14,59.0,1.0,1.45,0.0,0.0,-1.0,0,,,100,100,0,1,0,0,0,1,0,,,,,0.0,0.0,0
116,51.519521,5.858084,5.9,7.1,0.3,0.15,5.9,5.9,4.1,0.36,11594,2020-09-29 13:18:26,2020-09-29 15:18:26.719,19,0,0,12.304,51.519521,5.858086,0.0,0.0,-0.3,-3.1,2.3,157.8,0,1,0,97,100,-7240,3652,12304,2971.5,7,WP,1,0,0,0,0,0,0,1601385506718,4096,4081,4079,0,0,0,13,,,,,,,0,0,0,31.0,23.0,1578.0,0.0,0.0,1581.0,14,59.0,3.0,1.47,0.0,0.0,-3.0,0,,,100,100,0,1,0,0,0,1,0,,,,,0.0,0.0,0
117,51.519521,5.858084,5.9,7.1,0.5,0.14,5.9,5.9,4.1,0.36,11705,2020-09-29 13:18:26,2020-09-29 15:18:26.830,19,0,0,12.304,51.519521,5.858086,0.0,0.0,-0.5,-3.1,2.4,157.8,0,1,0,97,100,-7240,3652,12304,2971.5,7,WP,1,0,0,0,0,0,0,1601385506829,4096,4081,4079,0,0,0,13,,,,,,,0,0,0,31.0,24.0,1578.0,0.0,0.0,1581.0,14,59.0,5.0,1.45,0.0,0.0,-5.0,0,,,100,100,0,1,0,0,0,1,0,,,,,0.0,0.0,0
118,51.519521,5.858084,6.0,7.2,0.7,0.14,6.0,6.0,4.1,0.36,11801,2020-09-29 13:18:26,2020-09-29 15:18:26.926,19,0,0,12.304,51.519521,5.858086,0.0,0.0,-0.7,-2.8,2.8,157.7,0,1,0,97,100,-7240,3652,12304,2971.5,7,WP,1,0,0,0,0,0,0,1601385506925,4096,4081,4079,0,0,0,13,,,,,,,0,0,0,28.0,28.0,1577.0,0.0,0.0,1581.0,14,60.0,7.0,1.41,0.0,0.0,-7.0,0,,,100,100,0,1,0,0,0,1,0,,,,,0.0,0.0,0
119,51.519521,5.858084,6.1,7.3,1.0,0.13,6.1,6.1,4.1,0.36,11889,2020-09-29 13:18:27,2020-09-29 15:18:27.013,19,0,0,12.304,51.519521,5.858086,0.0,0.0,-1.0,-2.4,3.0,157.7,0,1,0,97,100,-7240,3652,12304,2971.5,7,WP,1,0,0,0,0,0,0,1601385507013,4096,4081,4079,0,0,0,13,,,,,,,0,0,0,24.0,30.0,1577.0,0.0,0.0,1581.0,14,61.0,10.0,1.33,0.0,0.0,-10.0,0,,,100,100,0,1,0,0,0,1,0,,,,,0.0,0.0,0
120,51.519521,5.858084,6.2,7.4,1.3,0.13,6.2,6.2,4.1,0.36,12000,2020-09-29 13:18:27,2020-09-29 15:18:27.125,19,0,0,12.304,51.519521,5.858086,0.0,0.0,-1.3,-2.2,3.2,157.7,0,1,0,97,100,-7240,3652,12304,2971.5,7,WP,1,0,0,0,0,0,0,1601385507124,4096,4081,4079,0,0,0,13,,,,,,,0,0,0,22.0,32.0,1577.0,0.0,0.0,1581.0,14,62.0,13.0,1.25,0.0,0.0,-13.0,0,,,100,100,0,1,0,0,0,1,0,,,,,0.0,0.0,0
121,51.519521,5.858084,6.4,7.5,1.5,0.12,6.4,6.4,4.1,0.36,12096,2020-09-29 13:18:27,2020-09-29 15:18:27.220,19,0,0,12.304,51.519521,5.858086,0.0,0.0,-1.5,-2.3,3.3,157.8,0,1,0,97,100,-7240,3652,12304,2971.5,7,WP,1,0,0,0,0,0,0,1601385507220,4096,4081,4079,0,0,0,13,,,,,,,0,0,0,23.0,33.0,1578.0,0.0,0.0,1581.0,14,64.0,15.0,1.23,0.0,0.0,-15.0,0,,,100,100,0,1,0,0,0,1,0,,,,,0.0,0.0,0
122,51.519521,5.858084,6.6,7.7,1.7,0.12,6.6,6.6,4.1,0.36,12215,2020-09-29 13:18:27,2020-09-29 15:18:27.339,19,0,0,12.304,51.519521,5.858086,0.0,0.0,-1.7,-2.5,3.3,157.8,0,1,0,97,100,-7240,3652,12304,2971.5,7,WP,1,0,0,0,0,0,0,1601385507339,4096,4081,4079,0,0,0,13,,,,,,,0,0,0,25.0,33.0,1578.0,0.0,0.0,1581.0,14,66.0,17.0,1.22,0.0,0.0,-17.0,0,,,100,100,0,1,0,0,0,1,0,,,,,0.0,0.0,0
123,51.519521,5.858084,6.8,7.9,2.0,0.12,6.8,6.8,4.1,0.36,12291,2020-09-29 13:18:27,2020-09-29 15:18:27.415,19,0,0,12.304,51.519521,5.858086,0.0,0.0,-2.0,-2.6,3.1,157.8,0,1,0,97,100,-7240,3652,12304,2971.5,7,WP,1,0,0,0,0,0,0,1601385507415,4096,4081,4079,0,0,0,13,,,,,,,0,0,0,26.0,31.0,1578.0,0.0,0.0,1581.0,14,68.0,20.0,1.15,0.0,0.0,-20.0,0,,,100,100,0,1,0,0,0,1,0,,,,,0.0,0.0,0
124,51.519521,5.858084,7.0,8.1,2.2,0.11,7.0,7.0,4.1,0.36,12393,2020-09-29 13:18:27,2020-09-29 15:18:27.518,19,0,0,12.304,51.519521,5.858086,0.0,0.0,-2.2,-2.3,3.0,157.8,0,1,0,97,100,-7240,3652,12304,2971.5,7,WP,1,0,0,0,0,0,0,1601385507517,4096,4081,4079,0,0,0,13,,,,,,,0,0,0,23.0,30.0,1578.0,0.0,0.0,1581.0,14,70.0,22.0,1.09,0.0,0.0,-22.0,0,,,100,100,0,1,0,0,0,1,0,,,,,0.0,0.0,0
125,51.519521,5.858084,7.2,8.3,2.4,0.1,7.2,7.2,4.1,0.36,12491,2020-09-29 13:18:27,2020-09-29 15:18:27.615,19,0,0,12.304,51.519521,5.858086,0.0,0.0,-2.4,-2.0,3.1,157.7,0,1,0,97,100,-7240,3652,12304,2971.5,7,WP,1,0,0,0,0,0,0,1601385507615,4096,4081,4079,0,0,0,13,,,,,,,0,0,0,20.0,31.0,1577.0,0.0,0.0,1581.0,14,72.0,24.0,1.05,0.0,0.0,-24.0,0,,,100,100,0,1,0,0,0,1,0,,,,,0.0,0.0,0
126,51.519521,5.858084,7.5,8.6,2.6,0.1,7.5,7.5,4.1,0.36,12592,2020-09-29 13:18:27,2020-09-29 15:18:27.717,19,0,0,12.304,51.519521,5.858086,0.0,0.0,-2.6,-1.7,3.1,157.8,0,1,0,97,100,-7240,3652,12304,2971.5,7,WP,1,0,0,0,0,0,0,1601385507716,4096,4081,4079,0,0,0,13,,,,,,,0,0,0,17.0,31.0,1578.0,0.0,0.0,1581.0,14,75.0,26.0,1.02,0.0,0.0,-26.0,0,,,100,100,0,1,0,0,0,1,0,,,,,0.0,0.0,0
127,51.519521,5.858084,7.7,8.9,2.8,0.1,7.7,7.7,4.1,0.36,12696,2020-09-29 13:18:27,2020-09-29 15:18:27.821,19,0,0,12.304,51.519521,5.858086,0.0,0.0,-2.8,-1.4,3.0,157.8,0,1,0,97,100,-7240,3652,12304,2971.5,7,WP,1,0,0,0,0,0,0,1601385507820,4096,4081,4079,0,0,0,13,,,,,,,0,0,0,14.0,30.0,1578.0,0.0,0.0,1581.0,14,77.0,28.0,1.03,0.0,0.0,-28.0,0,,,100,100,0,1,0,0,0,1,0,,,,,0.0,0.0,0
128,51.519521,5.858084,8.0,9.2,3.0,0.11,8.0,8.0,4.1,0.36,12791,2020-09-29 13:18:27,2020-09-29 15:18:27.916,19,0,0,12.304,51.519521,5.858086,0.0,0.0,-3.0,-1.3,2.8,157.9,0,1,0,97,100,-7240,3652,12304,2971.5,7,WP,1,0,0,0,0,0,0,1601385507915,4096,4081,4079,0,0,0,13,,,,,,,0,0,0,13.0,28.0,1579.0,0.0,0.0,1581.0,14,80.0,30.0,1.06,0.0,0.0,-30.0,0,,,100,100,0,1,0,0,0,1,0,,,,,0.0,0.0,0
129,51.519521,5.858084,8.4,9.5,3.1,0.11,8.4,8.4,4.1,0.36,12901,2020-09-29 13:18:28,2020-09-29 15:18:28.026,19,0,0,12.304,51.519521,5.858086,0.0,0.0,-3.1,-1.4,3.0,157.9,0,1,0,97,100,-7240,3652,12304,2971.5,7,WP,1,0,0,0,0,0,0,1601385508025,4096,4081,4079,0,0,0,13,,,,,,,0,0,0,14.0,30.0,1579.0,0.0,0.0,1581.0,14,84.0,31.0,1.1,0.0,0.0,-31.0,0,,,100,100,0,1,0,0,0,1,0,,,,,0.0,0.0,0
130,51.519521,5.858084,8.7,9.8,3.2,0.11,8.7,8.7,4.1,0.36,12990,2020-09-29 13:18:28,2020-09-29 15:18:28.115,19,0,0,12.304,51.519521,5.858086,0.0,0.0,-3.2,-1.5,2.9,158.0,0,1,0,97,100,-7240,3652,12304,2971.5,7,WP,1,0,0,0,0,0,0,1601385508114,4096,4081,4079,0,0,0,13,,,,,,,0,0,0,15.0,29.0,1580.0,0.0,0.0,1581.0,14,87.0,32.0,1.14,0.0,0.0,-32.0,0,,,100,100,0,1,0,0,0,1,0,,,,,0.0,0.0,0
131,51.519521,5.858084,9.0,10.1,3.3,0.12,9.0,9.0,4.1,0.36,13101,2020-09-29 13:18:28,2020-09-29 15:18:28.226,19,0,0,12.304,51.519521,5.858086,0.0,0.0,-3.3,-1.4,2.8,158.0,0,1,0,97,100,-7240,3652,12304,2971.5,7,WP,1,0,0,0,0,0,0,1601385508225,4096,4081,4079,0,0,0,13,,,,,,,0,0,0,14.0,28.0,1580.0,0.0,0.0,1581.0,14,90.0,33.0,1.18,0.0,0.0,-33.0,0,,,100,100,0,1,0,0,0,1,0,,,,,0.0,0.0,0
132,51.519521,5.858084,9.4,10.4,3.3,0.12,9.4,9.4,4.1,0.36,13194,2020-09-29 13:18:28,2020-09-29 15:18:28.319,19,0,0,12.304,51.519521,5.858086,0.0,0.0,-3.3,-1.2,2.8,158.0,0,1,0,97,100,-7240,3652,12304,2971.5,7,WP,1,0,0,0,0,0,0,1601385508318,4096,4081,4079,0,0,0,13,,,,,,,0,0,0,12.0,28.0,1580.0,0.0,0.0,1581.0,14,94.0,33.0,1.22,0.0,0.0,-33.0,0,,,100,100,0,1,0,0,0,1,0,,,,,0.0,0.0,0
133,51.519521,5.858084,9.7,10.7,3.3,0.13,9.7,9.7,4.1,0.36,13300,2020-09-29 13:18:28,2020-09-29 15:18:28.424,19,0,0,12.304,51.519521,5.858086,0.0,0.0,-3.3,-1.0,2.8,158.1,0,1,0,97,100,-7240,3652,12304,2971.5,7,WP,1,0,0,0,0,0,0,1601385508424,4096,4081,4079,0,0,0,13,,,,,,,0,0,0,10.0,28.0,1581.0,0.0,0.0,1581.0,14,97.0,33.0,1.26,0.0,0.0,-33.0,0,,,100,100,0,1,0,0,0,1,0,,,,,0.0,0.0,0
134,51.519521,5.858084,10.0,11.0,3.3,0.13,10.0,10.0,4.1,0.36,13402,2020-09-29 13:18:28,2020-09-29 15:18:28.526,19,0,0,12.304,51.519521,5.858086,0.0,0.0,-3.3,-1.1,2.7,158.1,0,1,0,97,100,-7240,3652,12304,2971.5,7,WP,1,0,0,0,0,0,0,1601385508526,4096,4081,4079,0,0,0,13,,,,,,,0,0,0,11.0,27.0,1581.0,0.0,0.0,1581.0,14,100.0,33.0,1.31,0.0,0.0,-33.0,0,,,100,100,0,1,0,0,0,1,0,,,,,0.0,0.0,0
135,51.519521,5.858084,10.4,11.3,3.2,0.14,10.4,10.4,4.1,0.36,13490,2020-09-29 13:18:28,2020-09-29 15:18:28.615,19,0,0,11.917,51.519521,5.858086,0.0,0.0,-3.2,-1.1,2.6,158.0,0,1,0,97,100,-10440,3644,11917,2971.5,7,WP,1,0,0,0,0,0,0,1601385508614,4096,4081,4079,0,0,0,13,,,,,,,0,0,0,11.0,26.0,1580.0,0.0,0.0,1581.0,14,104.0,32.0,1.36,0.0,0.0,-32.0,0,,,100,100,0,1,0,0,0,1,0,,,,,0.0,0.0,0
136,51.519521,5.858084,10.7,11.6,3.2,0.14,10.7,10.7,4.1,0.36,13601,2020-09-29 13:18:28,2020-09-29 15:18:28.726,19,0,0,11.917,51.519521,5.858086,0.0,0.0,-3.2,-1.1,2.4,158.1,0,1,0,97,100,-10440,3644,11917,2971.5,7,WP,1,0,0,0,0,0,0,1601385508725,4096,4081,4079,0,0,0,13,,,,,,,0,0,0,11.0,24.0,1581.0,0.0,0.0,1581.0,14,107.0,32.0,1.41,0.0,0.0,-32.0,0,,,100,100,0,1,0,0,0,1,0,,,,,0.0,0.0,0
137,51.519521,5.858084,11.0,11.9,3.1,0.15,11.0,11.0,4.1,0.36,13693,2020-09-29 13:18:28,2020-09-29 15:18:28.818,19,0,0,11.917,51.519521,5.858086,0.0,0.0,-3.1,-1.2,2.4,158.1,0,1,0,97,100,-10440,3644,11917,2971.5,7,WP,1,0,0,0,0,0,0,1601385508817,4096,4081,4079,0,0,0,13,,,,,,,0,0,0,12.0,24.0,1581.0,0.0,0.0,1581.0,14,110.0,31.0,1.49,0.0,0.0,-31.0,0,,,100,100,0,1,0,0,0,1,0,,,,,0.0,0.0,0
138,51.519521,5.858084,11.3,12.2,3.0,0.16,11.3,11.3,4.1,0.36,13791,2020-09-29 13:18:28,2020-09-29 15:18:28.916,19,0,0,11.917,51.519521,5.858086,0.0,0.0,-3.0,-1.3,2.4,158.2,0,1,0,97,100,-10440,3644,11917,2971.5,7,WP,1,0,0,0,0,0,0,1601385508915,4096,4081,4079,0,0,0,13,,,,,,,0,0,0,13.0,24.0,1582.0,0.0,0.0,1581.0,14,113.0,30.0,1.55,0.0,0.0,-30.0,0,,,100,100,0,1,0,0,0,1,0,,,,,0.0,0.0,0
139,51.519521,5.858084,11.6,12.5,2.8,0.16,11.6,11.6,4.1,0.36,13895,2020-09-29 13:18:29,2020-09-29 15:18:29.020,19,0,0,11.917,51.519521,5.858086,0.0,0.0,-2.8,-1.4,2.5,158.2,0,1,0,97,100,-10440,3644,11917,2971.5,7,WP,1,0,0,0,0,0,0,1601385509019,4096,4081,4079,0,0,0,13,,,,,,,0,0,0,14.0,25.0,1582.0,0.0,0.0,1581.0,14,116.0,28.0,1.64,0.0,0.0,-28.0,0,,,100,100,0,1,0,0,0,1,0,,,,,0.0,0.0,0
140,51.519521,5.858083,11.9,12.7,2.6,0.17,11.9,11.9,4.1,0.36,13991,2020-09-29 13:18:29,2020-09-29 15:18:29.116,19,0,0,11.917,51.519521,5.858086,0.0,0.0,-2.6,-1.5,2.4,158.2,0,1,0,97,100,-10440,3644,11917,2971.5,7,WP,1,0,0,0,0,0,0,1601385509115,4096,4081,4079,0,0,0,13,,,,,,,0,0,0,15.0,24.0,1582.0,0.0,0.0,1581.0,14,119.0,26.0,1.72,0.0,0.0,-26.0,0,,,100,100,0,1,0,0,0,1,0,,,,,0.0,0.0,0
141,51.519521,5.858083,12.1,0.0,2.4,0.18,12.1,12.1,4.1,0.36,14102,2020-09-29 13:18:29,2020-09-29 15:18:29.227,19,0,0,11.917,51.519521,5.858086,0.0,0.0,-2.4,-1.6,2.2,158.1,0,1,0,97,100,-10440,3644,11917,2971.5,7,WP,1,0,0,0,0,0,0,1601385509226,4096,4081,4079,0,0,0,13,,,,,,,0,0,0,16.0,22.0,1581.0,0.0,0.0,1581.0,14,121.0,24.0,1.83,0.0,0.0,-24.0,0,,,100,100,0,1,0,0,0,1,0,,,,,0.0,0.0,0
142,51.519521,5.858083,12.4,0.0,2.2,0.19,12.4,12.4,4.1,0.36,14199,2020-09-29 13:18:29,2020-09-29 15:18:29.324,19,0,0,11.917,51.519521,5.858086,0.0,0.0,-2.2,-1.8,2.1,158.1,0,1,0,97,100,-10440,3644,11917,2971.5,7,WP,1,0,0,0,0,0,0,1601385509323,4096,4081,4079,0,0,0,13,,,,,,,0,0,0,18.0,21.0,1581.0,0.0,0.0,1581.0,14,124.0,22.0,1.92,0.0,0.0,-22.0,0,,,100,100,0,1,0,0,0,1,0,,,,,0.0,0.0,0
143,51.519521,5.858083,12.6,0.0,2.0,0.2,12.6,12.6,4.1,0.36,14300,2020-09-29 13:18:29,2020-09-29 15:18:29.425,19,0,0,11.917,51.519521,5.858086,0.0,0.0,-2.0,-1.9,1.9,158.1,0,1,0,97,100,-10440,3644,11917,2971.5,7,WP,1,0,0,0,0,0,0,1601385509424,4096,4081,4079,0,0,0,13,,,,,,,0,0,0,19.0,19.0,1581.0,0.0,0.0,1581.0,14,126.0,20.0,2.03,0.0,0.0,-20.0,0,,,100,100,0,1,0,0,0,1,0,,,,,0.0,0.0,0
144,51.519522,5.858083,12.8,0.0,1.9,0.21,12.8,12.8,4.1,0.36,14391,2020-09-29 13:18:29,2020-09-29 15:18:29.516,19,0,0,11.917,51.519521,5.858086,0.0,0.0,-1.9,-2.0,1.7,158.0,0,1,0,97,100,-10440,3644,11917,2971.5,7,WP,1,0,0,0,0,0,0,1601385509515,4096,4081,4079,0,0,0,13,,,,,,,0,0,0,20.0,17.0,1580.0,0.0,0.0,1581.0,14,128.0,19.0,2.12,0.0,0.0,-19.0,0,,,100,100,0,1,0,0,0,1,0,,,,,0.0,0.0,0
145,51.519522,5.858083,12.9,0.0,1.8,0.22,12.9,12.9,4.1,0.36,14491,2020-09-29 13:18:29,2020-09-29 15:18:29.615,19,0,0,11.917,51.519521,5.858086,0.0,0.0,-1.8,-2.3,1.8,158.0,0,1,0,97,100,-10440,3644,11917,2971.5,7,WP,1,0,0,0,0,0,0,1601385509615,4096,4081,4079,0,0,0,13,,,,,,,0,0,0,23.0,18.0,1580.0,0.0,0.0,1581.0,14,129.0,18.0,2.19,0.0,0.0,-18.0,0,,,100,100,0,1,0,0,0,1,0,,,,,0.0,0.0,0
146,51.519522,5.858083,13.1,0.0,1.7,0.22,13.1,13.1,4.1,0.36,14596,2020-09-29 13:18:29,2020-09-29 15:18:29.720,19,0,0,11.917,51.519521,5.858086,0.0,0.0,-1.7,-2.5,2.0,158.0,0,1,0,97,100,-10440,3644,11917,2971.5,7,WP,1,0,0,0,0,0,0,1601385509720,4096,4081,4079,0,0,0,13,,,,,,,0,0,0,25.0,20.0,1580.0,0.0,0.0,1581.0,14,131.0,17.0,2.24,0.0,0.0,-17.0,0,,,100,100,0,1,0,0,0,1,0,,,,,0.0,0.0,0
147,51.519522,5.858083,13.3,0.0,1.6,0.22,13.3,13.3,4.1,0.36,14706,2020-09-29 13:18:29,2020-09-29 15:18:29.830,19,0,0,11.917,51.519521,5.858086,0.0,0.0,-1.6,-2.6,2.3,157.9,0,1,0,97,100,-10440,3644,11917,2971.5,7,WP,1,0,0,0,0,0,0,1601385509830,4096,4081,4079,0,0,0,13,,,,,,,0,0,0,26.0,23.0,1579.0,0.0,0.0,1581.0,14,133.0,16.0,2.22,0.0,0.0,-16.0,0,,,100,100,0,1,0,0,0,1,0,,,,,0.0,0.0,0
148,51.519522,5.858083,13.4,0.0,1.6,0.22,13.4,13.4,4.1,0.36,14806,2020-09-29 13:18:29,2020-09-29 15:18:29.931,19,0,0,11.917,51.519521,5.858086,0.0,0.0,-1.6,-2.5,2.5,157.8,0,1,0,97,100,-10440,3644,11917,2971.5,7,WP,1,0,0,0,0,0,0,1601385509930,4096,4081,4079,0,0,0,13,,,,,,,0,0,0,25.0,25.0,1578.0,0.0,0.0,1581.0,14,134.0,16.0,2.2,0.0,0.0,-16.0,0,,,100,100,0,1,0,0,0,1,0,,,,,0.0,0.0,0
149,51.519522,5.858083,13.6,0.0,1.6,0.21,13.6,13.6,4.1,0.36,14906,2020-09-29 13:18:30,2020-09-29 15:18:30.031,19,0,0,11.917,51.519521,5.858086,0.0,0.0,-1.6,-2.4,2.6,157.9,0,1,0,97,100,-10440,3644,11917,2971.5,7,WP,1,0,0,0,0,0,0,1601385510030,4096,4081,4079,0,0,0,13,,,,,,,0,0,0,24.0,26.0,1579.0,0.0,0.0,1581.0,14,136.0,16.0,2.13,0.0,0.0,-16.0,0,,,100,100,0,1,0,0,0,1,0,,,,,0.0,0.0,0
150,51.519522,5.858083,13.8,0.0,1.6,0.21,13.8,13.8,4.1,0.36,15006,2020-09-29 13:18:30,2020-09-29 15:18:30.130,19,0,0,11.917,51.519521,5.858086,0.0,0.1,-1.6,-2.2,2.8,157.9,0,1,0,97,100,-10440,3644,11917,2971.5,7,WP,1,0,0,0,0,0,0,1601385510130,4096,4081,4079,0,0,0,13,,,,,,,0,0,0,22.0,28.0,1579.0,0.0,0.0,1581.0,14,138.0,16.03,2.06,0.0,1.0,-16.0,0,,,100,100,0,1,0,0,0,1,0,,,,,0.0,0.0,0
151,51.519522,5.858084,13.9,0.0,1.6,0.19,13.9,13.9,4.1,0.36,15106,2020-09-29 13:18:30,2020-09-29 15:18:30.231,19,0,0,11.917,51.519521,5.858086,0.0,0.1,-1.6,-1.8,3.1,158.0,0,1,0,97,100,-10440,3644,11917,2971.5,7,WP,1,0,0,0,0,0,0,1601385510230,4096,4081,4079,0,0,0,13,,,,,,,0,0,0,18.0,31.0,1580.0,0.0,0.0,1581.0,14,139.0,16.03,1.94,0.0,1.0,-16.0,0,,,100,100,0,1,0,0,0,1,0,,,,,0.0,0.0,0
152,51.519522,5.858084,14.1,0.0,1.5,0.18,14.1,14.1,4.1,0.36,15206,2020-09-29 13:18:30,2020-09-29 15:18:30.331,19,0,0,11.917,51.519521,5.858086,0.0,0.1,-1.5,-1.6,3.3,158.0,0,1,0,97,100,-10440,3644,11917,2971.5,7,WP,1,0,0,0,0,0,0,1601385510330,4096,4081,4079,0,0,0,13,,,,,,,0,0,0,16.0,33.0,1580.0,0.0,0.0,1581.0,14,141.0,15.03,1.83,0.0,1.0,-15.0,0,,,100,100,0,1,0,0,0,1,0,,,,,0.0,0.0,0
153,51.519522,5.858084,14.3,0.0,1.5,0.17,14.3,14.3,4.1,0.36,15306,2020-09-29 13:18:30,2020-09-29 15:18:30.431,19,0,0,11.917,51.519521,5.858086,0.0,0.1,-1.5,-1.5,3.4,158.0,0,1,0,97,100,-10440,3644,11917,2971.5,7,WP,1,0,0,0,0,0,0,1601385510430,4096,4081,4079,0,0,0,13,,,,,,,0,0,0,15.0,34.0,1580.0,0.0,0.0,1581.0,14,143.0,15.03,1.72,0.0,1.0,-15.0,0,,,100,100,0,1,0,0,0,1,0,,,,,0.0,0.0,0
154,51.519522,5.858084,14.4,0.0,1.4,0.16,14.4,14.4,4.1,0.36,15406,2020-09-29 13:18:30,2020-09-29 15:18:30.530,19,0,0,11.917,51.519521,5.858086,0.0,0.1,-1.4,-1.4,3.5,158.0,0,1,0,97,100,-10440,3644,11917,2971.5,7,WP,1,0,0,0,0,0,0,1601385510530,4096,4081,4079,0,0,0,13,,,,,,,0,0,0,14.0,35.0,1580.0,0.0,0.0,1581.0,14,144.0,14.04,1.63,0.0,1.0,-14.0,0,,,100,100,0,1,0,0,0,1,0,,,,,0.0,0.0,0
155,51.519522,5.858084,14.6,0.0,1.4,0.16,14.6,14.6,4.1,0.36,15506,2020-09-29 13:18:30,2020-09-29 15:18:30.631,19,0,0,11.917,51.519521,5.858086,0.0,0.0,-1.4,-1.5,3.6,158.0,0,1,0,97,100,-10440,3644,11917,2971.5,7,WP,1,0,0,0,0,0,0,1601385510630,4096,4081,4079,0,0,0,13,,,,,,,0,0,0,15.0,36.0,1580.0,0.0,0.0,1581.0,14,146.0,14.0,1.56,0.0,0.0,-14.0,0,,,100,100,0,1,0,0,0,1,0,,,,,0.0,0.0,0
